name,locality,cuisine,price_per_person,overall_rating,food,service,ambiance,reviews,noise,dining_style,latitude,longitude,url
Broadstone Bar & Kitchen,Financial District,American,$,4.2,4.1,4.1,4.1,268,Moderate,Casual Dining,40.7041146,-74.0117291,https://www.kayak.com/New-York-Restaurants-Broadstone-Bar-Kitchen.100052206.rd.ksp
Stone Street Tavern,Financial District,American,$,4.5,4.4,4.5,4.2,75,Moderate,Casual Dining,40.7042777,-74.010273,https://www.kayak.com/New-York-Restaurants-Stone-Street-Tavern.100020600.rd.ksp
Industry Kitchen,Financial District,American,$,4.5,4.3,4.4,4.5,440,Moderate,Casual Dining,40.70492095,-74.0048741,https://www.kayak.com/New-York-Restaurants-Industry-Kitchen.100008389.rd.ksp
The Ketch - NYC,Financial District,Contemporary American,$,4,3.9,3.9,3.8,534,Moderate,Casual Elegant,40.7063056,-74.0074663,https://www.kayak.com/New-York-Restaurants-The-Ketch.100028704.rd.ksp
The Tuck Room- New York,Financial District,Unspecified,$,4.2,4.1,4.1,4.4,1163,Moderate,Casual Elegant,40.7066295,-74.0031405,https://www.kayak.com/New-York-Restaurants-The-Tuck-Room-New-York.100032597.rd.ksp
FARIDA Central Asian Cuisine & Grill,Hell's Kitchen,Asian,$,4.4,4.5,4.3,4,306,Moderate,Casual Dining,40.7071242,-74.0083922,https://www.kayak.com/New-York-Restaurants-FARIDA-Central-Asian-Cuisine-Grill.100056141.rd.ksp
Il Brigante Restaurant,Financial District,Italian,$,4.5,4.5,4.3,4.2,1576,Moderate,Casual Dining,40.7073831,-74.002626,https://www.kayak.com/New-York-Restaurants-Il-Brigante-Restaurant.100020169.rd.ksp
Barbalu,Financial District,Italian,$,4.5,4.4,4.4,4.4,46,Moderate,Fine Dining,40.7074502,-74.0020779,https://www.kayak.com/New-York-Restaurants-Barbalu.100005029.rd.ksp
Kiwi Cuba,Financial District,American,$,4.7,4.2,4.7,4.4,13,Low,Casual Dining,40.7075389,-74.0018114,https://www.kayak.com/New-York-Restaurants-Kiwi-Cuba.101004673.rd.ksp
Ainsworth Fi Di,Financial District,American,$,4.1,4,3.9,4,1804,Moderate,Casual Dining,40.7077143,-74.0082787,https://www.kayak.com/New-York-Restaurants-Ainsworth-Fi-Di.100049505.rd.ksp
Blue Ribbon Federal Grill,Financial District,Contemporary American,$,4.5,4.5,4.4,4.3,2134,Moderate,Casual Dining,40.7079853,-74.0077109,https://www.kayak.com/New-York-Restaurants-Blue-Ribbon-Federal-Grill.100052705.rd.ksp
Miramar,Battery Park City,Seafood,$,4.2,4.2,4.2,4.2,745,Moderate,Casual Dining,40.7079986,-74.0179927,https://www.kayak.com/New-York-Restaurants-Miramar.100052674.rd.ksp
Acqua Restaurant NYC,Financial District,Italian,$,4.3,4.3,4.3,4.3,2145,Moderate,Casual Dining,40.7082305,-74.0016978,https://www.kayak.com/New-York-Restaurants-Acqua-Restaurant-NYC.100020539.rd.ksp
Cowgirl Seahorse,Financial District,Café,$,4.4,4.2,4.1,4.2,598,Moderate,Casual Dining,40.7082323,-74.0005339,https://www.kayak.com/New-York-Restaurants-Cowgirl-Seahorse.100030948.rd.ksp
Kestè Wall Street,Financial District,Pizzeria,$,4.5,4.6,4.3,4.1,463,Low,Casual Dining,40.7091573,-74.004696,https://www.kayak.com/New-York-Restaurants-Keste-Wall-Street.100038157.rd.ksp
Bill's Bar & Burger Downtown,Financial District,Burgers,$,4.4,3.5,4.3,4.2,34,Moderate,Casual Dining,40.709363,-74.0141805,https://www.kayak.com/New-York-Restaurants-Bill-s-Bar-Burger-Downtown.100002095.rd.ksp
Carragher’s,Midtown,British,$,4.3,4,4.1,4.3,1094,Moderate,Casual Dining,40.7099702,-74.0087412,https://www.kayak.com/New-York-Restaurants-Carraghers.100024064.rd.ksp
Vino & ... Eataly Downtown NYC,Financial District,Italian,$,4.3,4.5,4.4,4.1,61,Moderate,Casual Dining,40.7100647,-74.0119758,https://www.kayak.com/New-York-Restaurants-Vino-Eataly-Downtown-NYC.101002302.rd.ksp
El Vez New York,Battery Park City,Mexican,$,4.5,4.4,4.3,4.3,10619,Moderate,Casual Dining,40.7127281,-74.0060152,https://www.kayak.com/New-York-Restaurants-El-Vez-New-York.100004791.rd.ksp
"The VNYL, Vintage New York Lifestyle",East Village,American,$,3.8,3.1,3.1,3.7,305,Moderate,Elegant Dining,40.7127753,-74.0059728,https://www.kayak.com/New-York-Restaurants-The-VNYL-Vintage-New-York-Lifestyle.100047913.rd.ksp
Parm Battery Park City,Battery Park City,Italian,$,4.2,4,3.8,3.7,2366,Moderate,Casual Dining,40.7144941,-74.016133,https://www.kayak.com/New-York-Restaurants-Parm-Battery-Park-City.100009230.rd.ksp
Bacaro,Chinatown,Italian,$,4.4,4.3,4.2,4.5,2694,Moderate,Casual Dining,40.7145382,-73.9916726,https://www.kayak.com/New-York-Restaurants-Bacaro.100017542.rd.ksp
ATRIO Wine Bar & Restaurant,Battery Park City,Unspecified,$,4.8,4.6,4.8,4.6,25,Moderate,Casual Elegant,40.7150499,-74.0155621,https://www.kayak.com/New-York-Restaurants-ATRIO-Wine-Bar-Restaurant.100020650.rd.ksp
The Metrograph Commissary,Chinatown,American,$,4.6,4.4,4.4,4.6,504,Moderate,Casual Dining,40.7151002,-73.9910692,https://www.kayak.com/New-York-Restaurants-The-Metrograph-Commissary.100040866.rd.ksp
Graffiti Earth at Duane Street Hotel,Tribeca,Fusion / Eclectic,$,4.4,4.4,4.4,4.3,245,Low,Casual Dining,40.7158628,-74.0074032,https://www.kayak.com/New-York-Restaurants-Graffiti-Earth-at-Duane-Street-Hotel.100034006.rd.ksp
The Palm Tribeca,Tribeca,Steakhouse,$,4.3,4.3,4.4,4.3,100,Moderate,Fine Dining,40.7165789,-74.0126991,https://www.kayak.com/New-York-Restaurants-The-Palm-Tribeca.100011919.rd.ksp
L'Angolo - Tribeca,Tribeca,Italian,$,4.5,4.4,4.4,4.4,2468,Moderate,Casual Elegant,40.7173371,-74.0105312,https://www.kayak.com/New-York-Restaurants-L-Angolo-Tribeca.100979215.rd.ksp
Casa Bella Restaurant,Little Italy,Italian,$,4.4,4.5,4.5,4.4,27,Moderate,Casual Dining,40.7180735,-73.9981277,https://www.kayak.com/New-York-Restaurants-Casa-Bella-Restaurant.100033753.rd.ksp
Sarabeth's TriBeCa,Tribeca,Unspecified,$,4.5,4.5,4.4,4.3,122,Moderate,Casual Dining,40.7182859,-74.01025,https://www.kayak.com/New-York-Restaurants-Sarabeth-s-TriBeCa.100034261.rd.ksp
Paesano of Mulberry Street,Little Italy,Italian,$,4.7,4.6,4.6,4.7,165,Moderate,Casual Dining,40.7185789,-73.997542,https://www.kayak.com/New-York-Restaurants-Paesano-of-Mulberry-Street.100028562.rd.ksp
Dinner on Ludlow,Lower East Side,American,$,3.9,3.9,3.8,3.9,374,Moderate,Casual Dining,40.7186318,-73.9893489,https://www.kayak.com/New-York-Restaurants-Dinner-on-Ludlow.100984141.rd.ksp
Aunt Jake's Little Italy,Little Italy,Italian,$,4.1,4.2,3.9,4,101,Moderate,Casual Dining,40.7186515,-73.9979766,https://www.kayak.com/New-York-Restaurants-Aunt-Jake-s-Little-Italy.100042920.rd.ksp
Los Feliz,Lower East Side,Mexican,$,4.7,4.6,4.3,4.5,41,Moderate,Casual Dining,40.719392,-73.9888436,https://www.kayak.com/New-York-Restaurants-Los-Feliz.100023834.rd.ksp
Char Sue,Lower East Side,Izakaya,$,4.6,4.6,4.3,4.2,195,Moderate,Casual Dining,40.7196,-73.9879152,https://www.kayak.com/New-York-Restaurants-Char-Sue.100052092.rd.ksp
Da Nico Restaurant - Manhattan,Little Italy,Italian,$,4.6,4.6,4.5,4.5,274,Moderate,Casual Dining,40.7196637,-73.9969318,https://www.kayak.com/New-York-Restaurants-Da-Nico-Ristorante-Manhattan-Location.100008977.rd.ksp
Sel Rrose,Bowery,French,$,4.5,4.4,4.2,4.4,1771,Moderate,Casual Dining,40.7199995,-73.993784,https://www.kayak.com/New-York-Restaurants-Sel-Rrose.100000884.rd.ksp
Pepe Rosso Social,Little Italy,Italian,$,4.6,4.5,4.3,4.3,51,Moderate,Casual Dining,40.720025,-73.9962167,https://www.kayak.com/New-York-Restaurants-Pepe-Rosso-Social.100028568.rd.ksp
La Mela,Little Italy,Italian,$,4.6,4.7,4.7,4.4,94,Moderate,Casual Dining,40.7200616,-73.9972674,https://www.kayak.com/New-York-Restaurants-La-Mela.100991769.rd.ksp
Serafina Ludlow,Lower East Side,Italian,$,4.2,4.2,4.1,4.2,65,Moderate,Casual Dining,40.720194,-73.9884455,https://www.kayak.com/New-York-Restaurants-Serafina-Ludlow.100038642.rd.ksp
Sons of Essex,Lower East Side,American,$,4.5,4.5,4.5,4.5,19,Moderate,Casual Dining,40.7202021,-73.9875286,https://www.kayak.com/New-York-Restaurants-Sons-of-Essex.100020189.rd.ksp
Ivan Ramen,Lower East Side,Contemporary Asian,$,4.9,4.8,4.9,4.6,408,Moderate,Casual Dining,40.7205419,-73.9844418,https://www.kayak.com/New-York-Restaurants-Ivan-Ramen.100986119.rd.ksp
Tijuana Picnic,Lower East Side,Mexican,$,4.4,4.2,3.9,4.3,1771,Moderate,Casual Dining,40.7207634,-73.9873657,https://www.kayak.com/New-York-Restaurants-Tijuana-Picnic.100047496.rd.ksp
Rizzo's Fine Pizza Co. Beer & Wine Bar,Lower East Side,Pizzeria,$,4.5,4.6,4.6,4.3,246,Moderate,Casual Dining,40.7208467,-73.9844011,https://www.kayak.com/New-York-Restaurants-Rizzo-s-Fine-Pizza-Co-Beer-Wine-Bar.100004555.rd.ksp
Souvlaki GR - LES,Lower East Side,Greek,$,4.6,4.8,4.7,4.5,11,Moderate,Casual Dining,40.7211257,-73.9871559,https://www.kayak.com/New-York-Restaurants-Souvlaki-GR-LES.100020937.rd.ksp
Ms Yoo,Lower East Side,Gastro Pub,$,4.3,4.2,4.3,4.2,344,Moderate,Casual Dining,40.7211839,-73.9896938,https://www.kayak.com/New-York-Restaurants-Ms-Yoo.100040154.rd.ksp
Balzem,Nolita,Mediterranean,$,4.4,4.4,4.4,4.4,53,Moderate,Casual Dining,40.7213239,-73.9954644,https://www.kayak.com/New-York-Restaurants-Balzem.100004813.rd.ksp
Pizza Beach LES,Lower East Side,Pizzeria,$,4.6,4.5,4.3,4.5,3157,Moderate,Casual Dining,40.7213684,-73.9887366,https://www.kayak.com/New-York-Restaurants-Pizza-Beach-LES.100025837.rd.ksp
Fiat Cafe,Nolita,Italian,$,4.7,4.7,4.7,4.5,30,Moderate,Casual Dining,40.7214311,-73.9956551,https://www.kayak.com/New-York-Restaurants-Fiat-Cafe.100017478.rd.ksp
Galli Restaurant SoHo,SoHo,Italian,$,4.3,4.3,4.2,4.2,6106,Moderate,Casual Dining,40.721674,-74.001407,https://www.kayak.com/New-York-Restaurants-Galli-Restaurant-SoHo.100022536.rd.ksp
Cafe Select,SoHo,Swiss,$,4.5,4.4,4.1,4.4,3185,Moderate,Casual Dining,40.7217594,-73.9978239,https://www.kayak.com/New-York-Restaurants-Cafe-Select.100019929.rd.ksp
Jack's Wife Freda - Lafayette Street,SoHo,Contemporary American,$,4.8,4.6,4.5,4.6,73,Moderate,Casual Dining,40.7221177,-73.9975189,https://www.kayak.com/New-York-Restaurants-Jack-s-Wife-Freda-Lafayette-Street.100007880.rd.ksp
Blue Ribbon Sushi Izakaya,Lower East Side,Japanese,$,4.6,4.6,4.6,4.5,198,Moderate,Casual Dining,40.722135,-73.988438,https://www.kayak.com/New-York-Restaurants-Blue-Ribbon-Sushi-Izakaya.100000695.rd.ksp
Jimmy at the James,SoHo,Tapas / Small Plates,$,4.3,3.8,3.8,4.3,507,Moderate,Casual Dining,40.7224501,-74.0048185,https://www.kayak.com/New-York-Restaurants-Jimmy-at-the-James.100009499.rd.ksp
Boulton and Watt,East Village,Comfort food,$,4.7,4.7,4.6,4.8,39,Moderate,Casual Dining,40.72252,-73.9863608,https://www.kayak.com/New-York-Restaurants-Boulton-and-Watt.100022790.rd.ksp
Supper Restaurant,East Village,Italian,$,4.6,4.6,4.4,4.3,4746,Moderate,Casual Dining,40.7229141,-73.9852575,https://www.kayak.com/New-York-Restaurants-Supper-Restaurant.100002785.rd.ksp
Lil' Frankie's,East Village,Italian,$,4.6,4.6,4.1,4.3,7201,Moderate,Casual Dining,40.7236464,-73.9884794,https://www.kayak.com/New-York-Restaurants-Lil-Frankie-s.100002782.rd.ksp
Little Prince,SoHo,French,$,4.5,4.5,4.3,4.4,6328,Moderate,Casual Dining,40.7236609,-73.9967169,https://www.kayak.com/New-York-Restaurants-Little-Prince.100003598.rd.ksp
Divya's Kitchen,East Village,Vegetarian / Vegan,$,4.7,4.7,4.7,4.8,69,Moderate,Casual Dining,40.7237147,-73.9883625,https://www.kayak.com/New-York-Restaurants-Divya-s-Kitchen.100034048.rd.ksp
Oda House,East Village,Georgian,$,4.5,4.6,4.3,4.1,1765,Moderate,Casual Dining,40.7240335,-73.9821057,https://www.kayak.com/New-York-Restaurants-Oda-House.100001754.rd.ksp
Laduree Soho Restaurant,SoHo,French,$,4.5,4.4,4.3,4.7,466,Moderate,Casual Elegant,40.7243143,-74.0025064,https://www.kayak.com/New-York-Restaurants-Laduree-SOHO.100051384.rd.ksp
Spring Street Natural,Nolita,American,$,4.5,4.3,4.3,4.2,1629,Moderate,Casual Dining,40.7243804,-74.0015419,https://www.kayak.com/New-York-Restaurants-Spring-Street-Natural.100042153.rd.ksp
Felix,SoHo,French,$,4.2,4.1,3.8,4.1,3601,Moderate,Casual Dining,40.7245415,-73.9996017,https://www.kayak.com/New-York-Restaurants-Felix.100018412.rd.ksp
Piccola Cucina Estiatorio,SoHo,Italian,$,4.7,4.7,4.7,4.5,428,Moderate,Casual Dining,40.7246842,-74.0031818,https://www.kayak.com/New-York-Restaurants-Piccola-Cucina-Estiatorio.100035517.rd.ksp
Mercer Kitchen,SoHo,American,$,4.5,4.4,4.2,4.5,1284,Moderate,Casual Elegant,40.7248117,-73.998741,https://www.kayak.com/New-York-Restaurants-Mercer-Kitchen.100011493.rd.ksp
Piccola Cucina Osteria - Spring St.,SoHo,Italian,$,4.6,4.6,4.6,4.3,250,Moderate,Casual Dining,40.7250308,-74.0032774,https://www.kayak.com/New-York-Restaurants-Piccola-Cucina-Osteria-Spring-St-.100001120.rd.ksp
Somtum Der,East Village,Thaï,$,4.5,4.5,4.2,4.1,1932,Moderate,Casual Dining,40.7252003,-73.9843444,https://www.kayak.com/New-York-Restaurants-Somtum-Der.100007396.rd.ksp
Buenos Aires,East Village,Argentinean,$,4.9,4.9,4.8,4.8,99,Moderate,Casual Dining,40.7252275,-73.9831134,https://www.kayak.com/New-York-Restaurants-Buenos-Aires.100001410.rd.ksp
Bessou,NoHo,Japanese,$,4.6,4.6,4.5,4.4,891,Moderate,Casual Dining,40.7254629,-73.9927069,https://www.kayak.com/New-York-Restaurants-Bessou.100039284.rd.ksp
Nonna Beppa,Hudson Square,Italian,$,4.4,4.4,4.4,4.3,476,Low,Casual Dining,40.7254978,-74.00744,https://www.kayak.com/New-York-Restaurants-Nonna-Beppa.100052567.rd.ksp
Blue Ribbon Brasserie,SoHo,American,$,4.8,4.8,4.7,4.6,297,Moderate,Casual Elegant,40.7254995,-74.0030627,https://www.kayak.com/New-York-Restaurants-Blue-Ribbon-Brasserie.100972610.rd.ksp
Bar Primi,East Village,Italian,$,4.7,4.6,4.6,4.5,161,Moderate,Casual Dining,40.7256687,-73.991784,https://www.kayak.com/New-York-Restaurants-Bar-Primi.100005204.rd.ksp
The Black Ant,East Village,Mexican,$,4.6,4.6,4.4,4.3,54,Moderate,Casual Dining,40.7257664,-73.9895015,https://www.kayak.com/New-York-Restaurants-The-Black-Ant.100005542.rd.ksp
Kana SoHo Bar,Hudson Square,Latin American,$,3.9,3.8,4,3.8,193,Moderate,Casual Dining,40.7258513,-74.0094266,https://www.kayak.com/New-York-Restaurants-Kana-SoHo-Bar.101012007.rd.ksp
Double Zero,East Village,Italian,$,4.7,4.7,4.4,4.4,65,Moderate,Casual Dining,40.7261117,-73.9897202,https://www.kayak.com/New-York-Restaurants-Double-Zero.100028154.rd.ksp
Giano,East Village,Italian,$,4.9,4.9,4.9,4.8,128,Moderate,Casual Elegant,40.7261935,-73.9841587,https://www.kayak.com/New-York-Restaurants-Giano.100013889.rd.ksp
Sadelle’s,SoHo,Breakfast,$,4.7,4.7,4.3,4.6,14647,Moderate,Casual Dining,40.7262525,-74.0001116,https://www.kayak.com/New-York-Restaurants-Sadelles.100023733.rd.ksp
Nai Tapas Restaurant,East Village,Tapas / Small Plates,$,4.6,4.6,4.6,4.5,110,Moderate,Elegant Dining,40.7265671,-73.98891,https://www.kayak.com/New-York-Restaurants-Nai-Tapas.100018457.rd.ksp
Tableside Italian Cook Shoppe,East Village,Italian,$,4.7,4.6,4.6,4.5,76,Moderate,Casual Elegant,40.7266525,-73.9864109,https://www.kayak.com/New-York-Restaurants-Tableside-Italian-Cook-Shoppe.100964634.rd.ksp
Coco & Cru,Manhattan,American,$,4.4,4.4,4.2,4.1,1974,Moderate,Casual Dining,40.7267509,-73.9960237,https://www.kayak.com/New-York-Restaurants-Coco-Cru.100036466.rd.ksp
Malai Marke,East Village,Indian,$,4.4,4.6,4.3,3.9,26,Moderate,Casual Dining,40.7268372,-73.9876745,https://www.kayak.com/New-York-Restaurants-Malai-Marke.100000083.rd.ksp
Vic's,NoHo,Italian,$,4.6,4.5,4.4,4.5,10195,Moderate,Casual Elegant,40.7269244,-73.9932027,https://www.kayak.com/New-York-Restaurants-Vic-s.100015136.rd.ksp
Local 92 - East Village,East Village,Mediterranean,$,4.2,4.2,4.1,4.1,67,Moderate,Casual Dining,40.7269801,-73.9885891,https://www.kayak.com/New-York-Restaurants-Local-92.100014132.rd.ksp
David's Cafe,East Village,French American,$,4.6,4.6,4.4,4.4,1782,Moderate,Casual Dining,40.727062,-73.9843137,https://www.kayak.com/New-York-Restaurants-David-s-Cafe.100026434.rd.ksp
Westville Hudson,Hudson Square,American,$,4.8,4.7,4.6,4.6,134,Moderate,Casual Dining,40.7272539,-74.0075081,https://www.kayak.com/New-York-Restaurants-Westville-Hudson.100003228.rd.ksp
Jane,Manhattan,American,$,4.6,4.4,4.5,4.4,100,Moderate,Casual Dining,40.7273302,-74.000275,https://www.kayak.com/New-York-Restaurants-Jane.100008385.rd.ksp
Eleven B,East Village,Italian,$,4.4,4.3,4.3,4.3,351,Moderate,Casual Dining,40.727419,-73.9796782,https://www.kayak.com/New-York-Restaurants-Eleven-B.100019586.rd.ksp
West 3rd Common,Manhattan,American,$,4.5,4.4,4.5,4,11,Moderate,Casual Elegant,40.7280423,-73.9950106,https://www.kayak.com/New-York-Restaurants-West-3rd-Common.100025344.rd.ksp
Madam Ji,Manhattan,Indian,$,4.2,4.2,4.1,3.7,481,Low,Casual Dining,40.7281846,-73.9996016,https://www.kayak.com/New-York-Restaurants-Surya.100026575.rd.ksp
"Gyu-Kaku - New York, NY | East Village",NoHo,Japanese,$,4.6,4.7,4.4,4.3,188,Moderate,Casual Dining,40.728255,-73.9914601,https://www.kayak.com/New-York-Restaurants-Gyu-Kaku-East-Village.100020369.rd.ksp
Favela Cubana,Manhattan,Cuban,$,4.2,4.1,4,4.1,1323,Moderate,Casual Dining,40.7284192,-73.9981377,https://www.kayak.com/New-York-Restaurants-Favela-Cubana.100048350.rd.ksp
Carroll Place,Manhattan,Italian,$,4.2,4.2,4,4.2,133,Moderate,Casual Dining,40.7286314,-73.9997681,https://www.kayak.com/New-York-Restaurants-Carroll-Place.100005231.rd.ksp
Gomi,East Village,Wine Bar,$,4.4,4.3,4.4,4.2,67,Low,Casual Dining,40.7288636,-73.9813167,https://www.kayak.com/New-York-Restaurants-Gomi.100046969.rd.ksp
Senza Gluten,Manhattan,Italian,$,4.7,4.7,4.7,4.6,325,Moderate,Casual Elegant,40.7290193,-74.0003692,https://www.kayak.com/New-York-Restaurants-Senza-Gluten.100008438.rd.ksp
The Library at The Public,NoHo,American,$,4.4,4.3,4.3,4.5,20,Moderate,Casual Dining,40.7290343,-73.9918323,https://www.kayak.com/New-York-Restaurants-The-Library-at-the-Public.100022092.rd.ksp
El Camion,East Village,Mexican,$,4.4,4.3,4,3.9,1297,Moderate,Casual Dining,40.7291288,-73.9811182,https://www.kayak.com/New-York-Restaurants-El-Camion.100019356.rd.ksp
Denino's Greenwich Village,Manhattan,Italian,$,4.8,4.8,4.7,4.6,115,Moderate,Casual Dining,40.7294021,-74.0011852,https://www.kayak.com/New-York-Restaurants-Denino-s-Greenwich-Village.100034069.rd.ksp
The Copper Still - East,East Village,American,$,4.4,4.3,4.1,4.2,222,Moderate,Casual Dining,40.729545,-73.9872359,https://www.kayak.com/New-York-Restaurants-The-Copper-Still-East.100029401.rd.ksp
Jack's Wife Freda - Carmine Street,West Village,Contemporary American,$,4.7,4.7,4.8,4.6,90,Moderate,Casual Dining,40.7298568,-74.0035384,https://www.kayak.com/New-York-Restaurants-Jack-s-Wife-Freda-Carmine-Street.100007881.rd.ksp
Numero 28 Pizzeria - West Village,West Village,Italian,$,4.5,4.6,4.4,4.3,38,Moderate,Casual Dining,40.7301138,-74.0027839,https://www.kayak.com/New-York-Restaurants-Numero-28-Pizzeria-West-Village.100024761.rd.ksp
White Oak Tavern,Manhattan,Comfort food,$,4.5,4.4,4.5,4.5,2470,Moderate,Casual Dining,40.7303749,-73.9946392,https://www.kayak.com/New-York-Restaurants-White-Oak-Tavern.100005524.rd.ksp
The Smith - East Village,East Village,American,$,4.6,3.5,4.5,4.4,501,Moderate,Casual Dining,40.7309719,-73.9886066,https://www.kayak.com/New-York-Restaurants-The-Smith-East-Village.100010609.rd.ksp
Snack Taverna,West Village,Greek,$,4.4,4.4,4.2,4.2,3484,Moderate,Casual Dining,40.7310534,-74.0047569,https://www.kayak.com/New-York-Restaurants-Snack-Taverna.100052067.rd.ksp
Tio Pepe NYC,West Village,Spanish,$,4.1,3.9,4.1,4,899,Moderate,Casual Dining,40.7320667,-74.0015583,https://www.kayak.com/New-York-Restaurants-Tio-Pepe.100032992.rd.ksp
Claudette,Manhattan,French,$,4.5,4.4,4.4,4.5,9935,Moderate,Casual Elegant,40.7330582,-73.9960229,https://www.kayak.com/New-York-Restaurants-Claudette.100004943.rd.ksp
Olio e Più,West Village,Italian,$,4.6,4.6,4.5,4.6,988,Moderate,Casual Dining,40.7337937,-73.9997745,https://www.kayak.com/New-York-Restaurants-Olio-e-Piu.100017071.rd.ksp
Agave,West Village,Unspecified,$,4.4,4.4,4.3,4.2,92,Moderate,Casual Elegant,40.7347312,-74.0023782,https://www.kayak.com/New-York-Restaurants-Agave.100013127.rd.ksp
Pinto Garden,West Village,Thaï,$,4.5,4.4,4.3,4.5,1063,Moderate,Casual Dining,40.7348667,-73.9994819,https://www.kayak.com/New-York-Restaurants-Pinto-Garden.100041567.rd.ksp
Extra Virgin Restaurant,West Village,Mediterranean,$,4.4,4.3,4.2,4.3,250,Moderate,Casual Dining,40.7353475,-74.0031806,https://www.kayak.com/New-York-Restaurants-Extra-Virgin-Restaurant.100033452.rd.ksp
Max Brenner - Union Square,Manhattan,Comfort food,$,4.3,4.3,4.4,4.2,363,Moderate,Casual Dining,40.7358633,-73.9910835,https://www.kayak.com/New-York-Restaurants-Max-Brenner-Union-Square.100039865.rd.ksp
5 Napkin Burger - Union Square,East Village,Burgers,$,4.2,4.2,4.1,3.9,3254,Moderate,Casual Elegant,40.7358633,-73.9910835,https://www.kayak.com/New-York-Restaurants-5-Napkin-Burger-Union-Square.100050348.rd.ksp
Spice - Union Square,Manhattan,Thaï,$,3.9,4,3.5,3.6,1621,Moderate,Casual Dining,40.7358633,-73.9910835,https://www.kayak.com/New-York-Restaurants-Spice-Union-Square.100051174.rd.ksp
Hudson Hound,West Village,American,$,4.5,4.3,4.5,4.3,15,Moderate,Casual Dining,40.7361111,-74.0061111,https://www.kayak.com/New-York-Restaurants-Hudson-Hound.100025800.rd.ksp
Pierre Loti Union Square,Gramercy,Mediterranean,$,4.6,4.2,4.6,4.4,30,Moderate,Casual Dining,40.7361222,-73.9874298,https://www.kayak.com/New-York-Restaurants-Pierre-Loti-Union-Square.100018080.rd.ksp
Flex Mussels - West Village,West Village,Seafood,$,4.8,4.9,4.7,4.7,43,Moderate,Casual Dining,40.7374687,-73.999649,https://www.kayak.com/New-York-Restaurants-Flex-Mussels-13th-Street.100042341.rd.ksp
Azuki Japanese Restaurant,Midtown,Japanese,$,4.2,4.2,3.9,3.8,217,Low,Casual Dining,40.7378367,-73.9877946,https://www.kayak.com/New-York-Restaurants-Azuki-Japanese-Restaurant.100035512.rd.ksp
Isabelle’s Osteria,Gramercy,Italian,$,4.5,4.4,4.4,4.4,231,Moderate,Casual Elegant,40.737976,-73.9875872,https://www.kayak.com/New-York-Restaurants-Farmer-The-Fish-Gramercy.100033384.rd.ksp
L'Express,Gramercy,French,$,4.6,4.5,4.4,4.4,183,Moderate,Casual Dining,40.7380991,-73.9876326,https://www.kayak.com/New-York-Restaurants-L-Express.100003214.rd.ksp
Brunetti Pizza - West Village,West Village,Pizzeria,$,4.5,4.5,4.6,4.4,68,Moderate,Casual Dining,40.738268,-74.005377,https://www.kayak.com/New-York-Restaurants-Brunetti-Pizza-West-Village.100004214.rd.ksp
Bocca Cucina & Bar,Gramercy,Italian,$,4.3,4.3,4.3,4.1,7605,Moderate,Casual Dining,40.738276,-73.9888627,https://www.kayak.com/New-York-Restaurants-Bocca.100005078.rd.ksp
La Nacional Restaurant,Chelsea,Spanish,$,4.7,4.7,4.5,4.5,167,Moderate,Casual Dining,40.7393804,-74.0012272,https://www.kayak.com/New-York-Restaurants-La-Nacional-Restaurant.101054014.rd.ksp
Natsumi Tapas,Midtown,Japanese,$,4.4,4.3,4,4.2,1597,Moderate,Casual Dining,40.7395596,-73.9823286,https://www.kayak.com/New-York-Restaurants-Natsumi-Tapas.100027712.rd.ksp
Patrizia's of 2nd Avenue,Midtown,Italian,$,4.3,4.1,4.4,4.1,45,Moderate,Casual Dining,40.7399139,-73.9791031,https://www.kayak.com/New-York-Restaurants-Patrizia-s-of-2nd-Avenue.100028712.rd.ksp
BoCaPhe Chelsea,Chelsea,Vietnamese,$,4.6,4.4,4.8,4.4,13,Moderate,Casual Dining,40.740504,-74.0016198,https://www.kayak.com/New-York-Restaurants-BoCaphe.100029430.rd.ksp
Flatiron Hall,Flatiron District,American,$,4.3,4.1,4.1,4,768,Moderate,Casual Dining,40.7410065,-73.9896538,https://www.kayak.com/New-York-Restaurants-Flatiron-Hall.100052630.rd.ksp
Dolcino Trattoria Toscana,Midtown,Italian,$,4.1,4,4.1,3.8,471,Low,Casual Dining,40.7415752,-73.9785218,https://www.kayak.com/New-York-Restaurants-Dolcino-Trattoria-Toscana.100052744.rd.ksp
BXL ZOUTE,Flatiron District,Belgian,$,4.6,4.6,4.6,4.5,60,Moderate,Casual Dining,40.7417874,-73.9925761,https://www.kayak.com/New-York-Restaurants-BXL-ZOUTE.100000198.rd.ksp
La Pizza & La Pasta - Eataly NYC Flatiron,Flatiron District,Italian,$,4.3,4.5,4.2,4.1,685,Moderate,Casual Dining,40.7419931,-73.9899357,https://www.kayak.com/New-York-Restaurants-La-Pizza-La-Pasta-Eataly-NYC-Flatiron.101006195.rd.ksp
Bread & Tulips,Midtown,Italian,$,4.6,4.5,4.8,4.8,13,Low,Casual Elegant,40.7421174,-73.984741,https://www.kayak.com/New-York-Restaurants-Bread-Tulips.100018423.rd.ksp
Pippali,Midtown,Contemporary Indian,$,4.7,4.7,4.6,4.3,30,Moderate,Casual Elegant,40.7423568,-73.9833045,https://www.kayak.com/New-York-Restaurants-Pippali.100035903.rd.ksp
Chote Nawab,Midtown,Indian,$,4.2,4.3,3.9,3.7,1197,Moderate,Casual Dining,40.7424558,-73.982328,https://www.kayak.com/New-York-Restaurants-Chote-Nawab.100019367.rd.ksp
Cull and Pistol,Chelsea,Seafood,$,4.5,4.5,4.4,4.1,1888,Moderate,Casual Dining,40.7426575,-74.0059408,https://www.kayak.com/New-York-Restaurants-Cull-and-Pistol.100051676.rd.ksp
Home Base Bistro,Midtown,Tapas / Small Plates,$,4.3,4,4.2,4.1,244,Moderate,Casual Dining,40.7430502,-73.9804794,https://www.kayak.com/New-York-Restaurants-Home-Base-Bistro.100008477.rd.ksp
Lasagna Restaurant – Chelsea,Chelsea,Italian,$,4.5,4.4,4.4,4.3,27,Moderate,Casual Dining,40.7432349,-73.9997149,https://www.kayak.com/New-York-Restaurants-Lasagna-Restaurant-Chelsea.100018286.rd.ksp
Wagamama (Nomad - 5th Avenue),Flatiron District,Asian,$,4.4,4.3,4.3,4.5,194,Moderate,Casual Dining,40.743366,-73.9887037,https://www.kayak.com/New-York-Restaurants-Wagamama-Nomad-5th-Avenue-.100049092.rd.ksp
La Pecora Bianca - NoMad,Flatiron District,Italian,$,4.5,4.5,4.3,4.4,14575,Moderate,Casual Dining,40.7437112,-73.9892129,https://www.kayak.com/New-York-Restaurants-La-Pecora-Bianca-NoMad.100051714.rd.ksp
VinoTapa,Midtown,Tapas / Small Plates,$,4.6,4.3,4.7,4.5,40,Moderate,Casual Dining,40.7437945,-73.9790957,https://www.kayak.com/New-York-Restaurants-VinoTapa.100019896.rd.ksp
The Smith - Nomad,Midtown,American,$,4.6,3.5,4.5,4.4,1270,Moderate,Casual Dining,40.7442146,-73.9887481,https://www.kayak.com/New-York-Restaurants-The-Smith-Nomad.100051716.rd.ksp
The Park,Chelsea,American,$,3.8,3.6,3.5,4.3,6611,Moderate,Casual Dining,40.744249,-74.0064253,https://www.kayak.com/New-York-Restaurants-The-Park.100009519.rd.ksp
Bazar Tapas Bar and Restaurant,Midtown,Tapas / Small Plates,$,4.6,4.6,4.4,4.4,200,Moderate,Casual Elegant,40.7444336,-73.9900996,https://www.kayak.com/New-York-Restaurants-Bazar-Tapas-Bar-and-Restaurant.100040993.rd.ksp
Bocca Di Bacco (Chelsea - 20th St.),Chelsea,Italian,$,4.4,4.5,4.4,4.4,150,Moderate,Casual Dining,40.7446239,-74.0030237,https://www.kayak.com/New-York-Restaurants-Bocca-Di-Bacco-Chelsea-20th-St-.100000173.rd.ksp
Spice Symphony - 31st St,Midtown,Indian,$,4.6,4.6,4.6,4.4,26,Low,Casual Elegant,40.7447452,-73.9812527,https://www.kayak.com/New-York-Restaurants-Spice-Symphony-31st-St.100034616.rd.ksp
La Bergamote,Chelsea,French,$,4.5,4.4,4.3,4.3,43,Moderate,Casual Dining,40.7448363,-74.0028199,https://www.kayak.com/New-York-Restaurants-La-Bergamote.100001028.rd.ksp
Ainsworth Chelsea,Chelsea,Sports Bar,$,3.6,3.5,3.5,3.3,25,Moderate,Casual Dining,40.7451811,-73.9925803,https://www.kayak.com/New-York-Restaurants-The-Ainsworth.100018211.rd.ksp
Asuka Sushi,Chelsea,Japanese,$,4.8,4.7,4.6,4.4,108,Moderate,Casual Elegant,40.7452899,-73.9988852,https://www.kayak.com/New-York-Restaurants-Asuka-Sushi.100020520.rd.ksp
Zia Maria - Chelsea,Chelsea,Italian,$,4.5,4.4,4.5,4.2,78,Moderate,Casual Dining,40.7454027,-73.9993382,https://www.kayak.com/New-York-Restaurants-Zia-Maria-Ristorante-and-Pizzeria.100034700.rd.ksp
114 @ THE MARMARA PARK AVENUE,Midtown,Contemporary American,$,4.3,4.3,3.9,4.3,23,Low,Casual Dining,40.745412,-73.9815899,https://www.kayak.com/New-York-Restaurants-114-THE-MARMARA-PARK-AVENUE.100052478.rd.ksp
Le Parisien,Midtown,French,$,4.7,4.8,4.8,4.6,225,Moderate,Casual Dining,40.7454199,-73.9791492,https://www.kayak.com/New-York-Restaurants-Le-Parisien.101014716.rd.ksp
Cookshop,Chelsea,American,$,4.4,4.3,4.3,4.1,32428,Moderate,Casual Elegant,40.7457199,-74.0054281,https://www.kayak.com/New-York-Restaurants-Cookshop.100015134.rd.ksp
Crompton Ale House,Chelsea,American,$,4.2,4.2,4.2,4.2,530,Moderate,Casual Dining,40.7458092,-73.9933019,https://www.kayak.com/New-York-Restaurants-Crompton-Ale-House.100010305.rd.ksp
Jackson Hole - Murray Hill,Midtown,Burgers,$,4,3.9,3.9,2.9,11,Moderate,Casual Dining,40.7461701,-73.9775096,https://www.kayak.com/New-York-Restaurants-Jackson-Hole-Murray-Hill.100052676.rd.ksp
Woodpecker by David Burke,Midtown,American,$,4.3,4.3,4.2,4.1,2376,Moderate,Casual Elegant,40.7464289,-73.9880074,https://www.kayak.com/New-York-Restaurants-Woodpecker-by-David-Burke.100050822.rd.ksp
Soju Haus,Midtown,Korean,$,4.5,4.5,4.3,4.4,758,Moderate,Casual Dining,40.7470064,-73.9853791,https://www.kayak.com/New-York-Restaurants-Soju-Haus.100032603.rd.ksp
O'Reilly's Pub,Midtown,Irish,$,4.1,4.1,4,3.9,122,Moderate,Casual Dining,40.7475728,-73.98886433,https://www.kayak.com/New-York-Restaurants-O-Reilly-s-Pub.100027900.rd.ksp
Le Pif- Chelsea,Chelsea,French,$,4.5,4.5,4.4,4.4,588,Moderate,Casual Dining,40.7476868,-74.0037054,https://www.kayak.com/New-York-Restaurants-Le-Pif-Chelsea.100037514.rd.ksp
Calle Dao - Chelsea,Chelsea,Unspecified,$,4.3,4.2,4.1,4.4,739,Moderate,Casual Dining,40.747693,-74.0035074,https://www.kayak.com/New-York-Restaurants-Calle-Dao-Chelsea.100042716.rd.ksp
Empellon Al Pastor (Murray Hill),Midtown,Dining bar,$,4,4,4,3.9,478,Moderate,Casual Dining,40.7493962,-73.9765859,https://www.kayak.com/New-York-Restaurants-Empellon-Al-Pastor-Murray-Hill-.100052327.rd.ksp
House of Lasagna,Midtown,Italian,$,4.8,4.8,4.7,4.6,71,Moderate,Casual Dining,40.7497222,-73.9775,https://www.kayak.com/New-York-Restaurants-House-of-Lasagna.100016842.rd.ksp
Kokage,Midtown,Japanese,$,4.5,4.5,4.5,4.6,74,Moderate,Casual Dining,40.7498505,-73.9777336,https://www.kayak.com/New-York-Restaurants-Kokage.101032594.rd.ksp
Feile,Chelsea,Irish,$,4.1,4,4.2,3.9,725,Moderate,Casual Dining,40.7498635,-73.9897361,https://www.kayak.com/New-York-Restaurants-Feile.100018440.rd.ksp
Madangsui-NY,Midtown,Korean,$,4.3,4.3,4.2,3.7,1953,Moderate,Casual Dining,40.7498905,-73.9856774,https://www.kayak.com/New-York-Restaurants-Madangsui-NY.100008363.rd.ksp
The Liberty NYC,Midtown,American,$,4.6,4.4,4.7,4.4,80,Moderate,Casual Dining,40.7498981,-73.9855555,https://www.kayak.com/New-York-Restaurants-The-Liberty-NYC.100036353.rd.ksp
Habanero Blues,Midtown,Mexican,$,4,3.9,3.8,3.9,876,Moderate,Casual Dining,40.7505665,-73.985069,https://www.kayak.com/New-York-Restaurants-Habanero-Blues.100031507.rd.ksp
Stella 34 Trattoria,Midtown,Italian,$,4.3,4.2,4.3,4.3,227,Moderate,Casual Elegant,40.7507401,-73.9896197,https://www.kayak.com/New-York-Restaurants-Stella-34-Trattoria.101017035.rd.ksp
Ovest Pizzoteca,Chelsea,Pizzeria,$,4.7,4.5,4.5,4.4,56,Moderate,Elegant Dining,40.7507508,-74.0030219,https://www.kayak.com/New-York-Restaurants-Ovest-Pizzoteca.100028125.rd.ksp
Reichenbach Hall,Midtown,German,$,4.2,4,3.9,4,1694,Moderate,Casual Dining,40.7508098,-73.9840031,https://www.kayak.com/New-York-Restaurants-Reichenbach-Hall.100037137.rd.ksp
Rowland's Bar & Grill,Midtown,American,$,4.1,4.1,4.1,3.8,411,Moderate,Casual Dining,40.751113,-73.9890814,https://www.kayak.com/New-York-Restaurants-Rowland-s-Bar-Grill.101017972.rd.ksp
Zaika New York,Midtown,Indian,$,4.3,4.4,4.3,4.1,149,Low,Casual Elegant,40.7512444,-73.972053,https://www.kayak.com/New-York-Restaurants-Zaika-New-York.100043561.rd.ksp
Calle Dao - Bryant Park,Midtown,Unspecified,$,4.3,4.3,4.3,4.3,2513,Moderate,Casual Elegant,40.7521634,-73.9842196,https://www.kayak.com/New-York-Restaurants-Calle-Dao-Bryant-Park.100042886.rd.ksp
Tick Tock Diner NY,Hell's Kitchen,American,$,4.2,4,4.2,4,143,Moderate,Casual Dining,40.75242,-73.993544,https://www.kayak.com/New-York-Restaurants-Tick-Tock-Diner-NY.100986810.rd.ksp
Legasea Bar & Grill,Midtown,American,$,4.4,4.4,4.5,4.4,233,Moderate,Casual Dining,40.7524572,-73.9893668,https://www.kayak.com/New-York-Restaurants-Legasea-Bar-Grill.101006418.rd.ksp
THE BAR at Great Northern Food Hall,Midtown,Scandinavian,$,4.4,4.3,3.9,3.9,196,Moderate,Casual Dining,40.7527262,-73.9772294,https://www.kayak.com/New-York-Restaurants-THE-BAR-at-Great-Northern-Food-Hall.100038981.rd.ksp
Stout NYC Grand Central,Midtown,Bar / Lounge / Bottle Service,$,4.2,4,4.1,4,298,Moderate,Casual Dining,40.7527262,-73.9772294,https://www.kayak.com/New-York-Restaurants-Stout-NYC-Grand-Central.100046949.rd.ksp
Da Raffaele - NYC,Midtown,Italian,$,4.4,4.3,4.4,4.3,37,Moderate,Casual Dining,40.7535648,-73.9666471,https://www.kayak.com/New-York-Restaurants-Da-Raffaele-NYC.100980320.rd.ksp
Chef Yu,Midtown,Chinese,$,4.4,4.3,4.3,4.4,29,Moderate,Casual Dining,40.7536515,-73.9922102,https://www.kayak.com/New-York-Restaurants-Chef-Yu.100035045.rd.ksp
The Houndstooth Pub,Midtown,American,$,3.9,3.8,3.8,3.7,765,Moderate,Casual Elegant,40.753839,-73.99204,https://www.kayak.com/New-York-Restaurants-The-Houndstooth-Pub.100027001.rd.ksp
Lazzara's Pizza Cafe,Midtown,Pizzeria,$,4.6,4.6,4.6,4.4,25,Moderate,Casual Dining,40.754012,-73.989521,https://www.kayak.com/New-York-Restaurants-Lazzara-s-Pizza-Cafe.101025307.rd.ksp
District Tap House,Midtown,American,$,4.5,4.2,4.6,4.3,35,Moderate,Casual Dining,40.7540393,-73.9905013,https://www.kayak.com/New-York-Restaurants-District-Tap-House.101016214.rd.ksp
Copinette,Midtown,American,$,4.5,4.5,4.5,4.4,344,Moderate,Casual Dining,40.7541516,-73.9662617,https://www.kayak.com/New-York-Restaurants-Copinette.100050819.rd.ksp
The Skylark NYC,Midtown,American,$,4.5,4.2,4.2,4.7,2756,Moderate,Casual Dining,40.7541889,-73.9888567,https://www.kayak.com/New-York-Restaurants-The-Skylark-NYC.100004953.rd.ksp
Sip Sak,Midtown,Turkish,$,4.5,4.4,4.4,4.1,41,Moderate,Casual Dining,40.754364,-73.968535,https://www.kayak.com/New-York-Restaurants-Sip-Sak.100051144.rd.ksp
Doylers 37 NYC,Hell's Kitchen,Irish,$,4.1,3.9,4,3.8,31,Low,Casual Dining,40.7544586,-73.9935479,https://www.kayak.com/New-York-Restaurants-Doylers-37-NYC.101004698.rd.ksp
Pathos Cafe,Midtown,Mediterranean,$,4.4,4.4,4.3,4.2,454,Moderate,Casual Dining,40.7545264,-73.9654648,https://www.kayak.com/New-York-Restaurants-Pathos-Cafe.100039169.rd.ksp
Deux Amis,Midtown,French,$,4.6,4.6,4.4,4.5,123,Moderate,Casual Dining,40.7545966,-73.9661633,https://www.kayak.com/New-York-Restaurants-Deux-Amis.100002261.rd.ksp
La Pecora Bianca - Midtown,Midtown,Italian,$,4.6,4.5,4.3,4.5,7836,Moderate,Casual Dining,40.7549194,-73.9682485,https://www.kayak.com/New-York-Restaurants-La-Pecora-Bianca-Midtown.100041174.rd.ksp
Toloache-Midtown,Midtown,Mexican,$,4.5,4.6,4.5,4.3,606,Moderate,Casual Dining,40.7549309,-73.9840195,https://www.kayak.com/New-York-Restaurants-Toloache-Midtown.100005229.rd.ksp
Souvlaki GR Midtown,Midtown,Greek,$,4.7,4.7,4.6,4.2,98,Moderate,Casual Dining,40.7549309,-73.9840195,https://www.kayak.com/New-York-Restaurants-Souvlaki-GR-Midtown.100024524.rd.ksp
Tommy Bahama - New York,Midtown,American,$,4.7,4.7,4.6,4.6,322,Moderate,Casual Elegant,40.7553925,-73.9784052,https://www.kayak.com/New-York-Restaurants-Tommy-Bahama-New-York.100022456.rd.ksp
Karizma Hookah Lounge,Midtown,Middle Eastern,$,4.1,3.6,3.9,4,162,Moderate,Casual Dining,40.7556062,-73.9688181,https://www.kayak.com/New-York-Restaurants-Karizma-Hookah-Lounge.100048610.rd.ksp
Spice Symphony – 50th St.,Midtown,Indian,$,4.6,4.7,4.5,4.3,116,Moderate,Casual Dining,40.7558918,-73.9716131,https://www.kayak.com/New-York-Restaurants-Spice-Symphony-50th-St-.100022380.rd.ksp
Pierre Loti Midtown,Midtown,Turkish,$,4.4,4.2,4.4,4.2,871,Moderate,Casual Dining,40.7559064,-73.9673248,https://www.kayak.com/New-York-Restaurants-Pierre-Loti-Midtown.100048365.rd.ksp
Maggie's Place,Midtown,Irish,$,4.2,4,4.1,3.9,1158,Moderate,Casual Dining,40.7562153,-73.9771764,https://www.kayak.com/New-York-Restaurants-Maggie-s-Place.100018441.rd.ksp
Bistango at The Kimberly Hotel,Midtown,Italian,$,4.7,4.7,4.6,4.4,104,Moderate,Casual Elegant,40.7563583,-73.9713636,https://www.kayak.com/New-York-Restaurants-Bistango-at-The-Kimberly-Hotel.100007017.rd.ksp
The Long Room,Midtown,Irish,$,4.1,4,4.1,4,943,Moderate,Casual Dining,40.7564107,-73.9843398,https://www.kayak.com/New-York-Restaurants-The-Long-Room.100018703.rd.ksp
Ninos 46,Midtown,Contemporary Italian,$,4.5,4.4,4.4,4.1,70,Moderate,Casual Dining,40.7568194,-73.9805587,https://www.kayak.com/New-York-Restaurants-Ninos-46.100030801.rd.ksp
Virgil's Real BBQ - New York City,Midtown,Barbecue,$,4.4,4.3,4.4,4.2,570,Moderate,Casual Dining,40.7568784,-73.9853179,https://www.kayak.com/New-York-Restaurants-Virgil-s-Real-BBQ-New-York-City.100011262.rd.ksp
Via Italia Restaurant,Midtown,Italian,$,3.9,4,3.9,3.7,367,Low,Casual Dining,40.7569108,-73.9807398,https://www.kayak.com/New-York-Restaurants-Via-Italia-Restaurant.100051023.rd.ksp
Angelo Bellini Italian Restaurant,Midtown,Italian,$,3.6,3.6,3.6,3.7,40,Moderate,Casual Dining,40.757136,-73.968488,https://www.kayak.com/New-York-Restaurants-Angelo-Bellini-Italian-Restaurant.100022165.rd.ksp
Souvlaki GR Kouzina,Midtown,Greek,$,4.9,4.9,4.9,4.9,14,Moderate,Casual Dining,40.7572778,-73.9680576,https://www.kayak.com/New-York-Restaurants-Souvlaki-GR-Kouzina.100055858.rd.ksp
Connolly's Pub and Restaurant - 45th,Midtown,American,$,4.5,4.4,4.6,4.5,112,Moderate,Casual Dining,40.7573681,-73.9835798,https://www.kayak.com/New-York-Restaurants-Connolly-s-Pub-and-Restaurant-45th.100020311.rd.ksp
Connolly's Pub and Restaurant - 47th,Midtown,American,$,4.2,3.9,4,4,37,Moderate,Casual Dining,40.7573681,-73.9835798,https://www.kayak.com/New-York-Restaurants-Connolly-s-Pub-and-Restaurant-47th.100051162.rd.ksp
Gu Japanese Fusion Sushi and Bar,Midtown,Japanese,$,4.5,4.4,4.3,4.2,60,Moderate,Casual Dining,40.7573972,-73.9703557,https://www.kayak.com/New-York-Restaurants-Gu-Japanese-Fusion-Sushi-and-Bar.100050534.rd.ksp
The Perfect Pint - West,Midtown,American,$,4.4,4.3,4.5,4.3,92,Moderate,Casual Dining,40.7574092,-73.9837409,https://www.kayak.com/New-York-Restaurants-The-Perfect-Pint-West.100020337.rd.ksp
Carmine's - 44th Street - NYC,Midtown,Italian,$,4.6,4.6,4.5,4.5,3757,Moderate,Casual Elegant,40.757498,-73.986654,https://www.kayak.com/New-York-Restaurants-Carmine-s-44th-Street-NYC.100011253.rd.ksp
New York Kimchi,Midtown,Korean,$,4.1,4.2,4.2,3.6,193,Moderate,Casual Dining,40.7576124,-73.9791762,https://www.kayak.com/New-York-Restaurants-New-York-Kimchi.100006117.rd.ksp
O'Lunney's Times Square Pub,Midtown,Irish,$,4.4,4.3,4.5,4.3,282,Moderate,Casual Dining,40.7576169,-73.9843645,https://www.kayak.com/New-York-Restaurants-O-Lunney-s-Times-Square-Pub.100022250.rd.ksp
Dos Caminos - Times Square,Midtown,Mexican,$,4.2,4.2,4.1,4,316,Moderate,Casual Dining,40.7579747,-73.9855426,https://www.kayak.com/New-York-Restaurants-Dos-Caminos-Times-Square.100986227.rd.ksp
Sean's Bar & Kitchen,Midtown,Irish,$,4.2,4.1,4.4,4.1,30,Moderate,Casual Dining,40.7579901,-73.9800977,https://www.kayak.com/New-York-Restaurants-Sean-s-Bar-Kitchen.100029467.rd.ksp
Crimson & Rye,Midtown,Cocktail bar,$,4.3,4,4.2,4.2,182,Moderate,Casual Dining,40.7581145,-73.9686963,https://www.kayak.com/New-York-Restaurants-Crimson-Rye.100023857.rd.ksp
Yama Ramen & Sushi,Midtown,Sushi,$,4.5,4.5,4.5,4.1,42,Moderate,Casual Dining,40.7582206,-73.9805984,https://www.kayak.com/New-York-Restaurants-Yama-Ramen.100039057.rd.ksp
Haven Rooftop,Midtown,American,$,4.3,4.2,4.3,4.4,685,Moderate,Casual Elegant,40.7583844,-73.9832932,https://www.kayak.com/New-York-Restaurants-Haven-Rooftop.100021825.rd.ksp
NAYA Mezze & Grill,Midtown,Lebanese,$,4.4,4.4,4.3,4.2,6924,Moderate,Casual Elegant,40.7584922,-73.9661187,https://www.kayak.com/New-York-Restaurants-NAYA-Mezze-Grill.100012264.rd.ksp
Bocca Di Bacco (Theatre District - 45th St.),Hell's Kitchen,Italian,$,4.5,4.5,4.5,4.3,190,Moderate,Casual Dining,40.759011,-73.9844722,https://www.kayak.com/New-York-Restaurants-Bocca-Di-Bacco-Theatre-District-45th-St-.100015263.rd.ksp
"Gyu-Kaku - New York, NY | Midtown",Midtown,Japanese,$,4.7,4.7,4.5,4.4,292,Moderate,Casual Elegant,40.7591217,-73.9898914,https://www.kayak.com/New-York-Restaurants-Gyu-Kaku-Midtown.100020366.rd.ksp
Esca,Hell's Kitchen,Italian,$,4.2,4.2,4.2,4,14102,Moderate,Casual Elegant,40.7592099,-73.9926165,https://www.kayak.com/New-York-Restaurants-Esca.100003650.rd.ksp
"Gyu-Kaku - New York, NY | Times Square",Hell's Kitchen,Japanese,$,4.7,4.7,4.7,4.5,232,Moderate,Casual Dining,40.75923,-73.9846345,https://www.kayak.com/New-York-Restaurants-Gyu-Kaku-New-York-NY-Times-Square.101016610.rd.ksp
Under the Bridge,Midtown,Greek,$,4.4,4.4,4.3,4,2455,Moderate,Casual Dining,40.7595821,-73.9622337,https://www.kayak.com/New-York-Restaurants-Under-the-Bridge.100028439.rd.ksp
Mama Mia - 44sw,Hell's Kitchen,Italian,$,4.5,4.5,4.4,4.4,75,Moderate,Casual Dining,40.75972,-73.9919266,https://www.kayak.com/New-York-Restaurants-Mama-Mia-44sw.100005153.rd.ksp
Marseille,Hell's Kitchen,French,$,4.5,4.5,4.6,4.5,798,Moderate,Casual Dining,40.7597501,-73.991404,https://www.kayak.com/New-York-Restaurants-Marseille.100010635.rd.ksp
Scarlatto,Hell's Kitchen,Italian,$,4,4,4,3.8,10693,Moderate,Casual Dining,40.7598975,-73.9865625,https://www.kayak.com/New-York-Restaurants-Scarlatto.100017756.rd.ksp
The Mean Fiddler,Midtown,American,$,4.3,4.3,4.4,4.1,1262,Moderate,Casual Dining,40.7601307,-73.9871355,https://www.kayak.com/New-York-Restaurants-The-Mean-Fiddler.100038712.rd.ksp
5 Napkin Burger - Hell's Kitchen,Hell's Kitchen,Burgers,$,4.7,4.6,4.5,4.4,413,Moderate,Casual Dining,40.7601614,-73.9911074,https://www.kayak.com/New-York-Restaurants-5-Napkin-Burger-Hell-s-Kitchen.100011215.rd.ksp
Blooms Tavern,Midtown,American,$,4.4,4.6,4.4,4.1,14,Moderate,Casual Dining,40.7605255,-73.9665898,https://www.kayak.com/New-York-Restaurants-Blooms-Tavern.100003869.rd.ksp
Obao,Hell's Kitchen,Thaï,$,4.2,4.2,4,4.1,10982,Moderate,Casual Dining,40.7606269,-73.9912736,https://www.kayak.com/New-York-Restaurants-Obao.100017381.rd.ksp
LeGrande Lounge,Midtown,Bar / Lounge / Bottle Service,$,2.9,3.5,3,3,78,Moderate,Casual Dining,40.7607185,-73.9847424,https://www.kayak.com/New-York-Restaurants-LeGrande-Lounge.101005532.rd.ksp
La Pulperia 46th Street,Hell's Kitchen,Latin American,$,4.2,4.2,4.3,4,2205,Moderate,Casual Elegant,40.7609547,-73.9902635,https://www.kayak.com/New-York-Restaurants-La-Pulperia-46th-Street.100035912.rd.ksp
Fogo de Chao - New York,Midtown,Brazilian,$,4.5,4.6,4.5,4.5,614,Moderate,Casual Elegant,40.7611533,-73.9779162,https://www.kayak.com/New-York-Restaurants-Fogo-de-Chao-New-York.101006952.rd.ksp
"Hell's Kitchen - 9th Ave, New York City",Hell's Kitchen,Mexican,$,4.5,4.5,4.4,4.3,2363,Moderate,Casual Dining,40.7611957,-73.9908516,https://www.kayak.com/New-York-Restaurants-Hell-s-Kitchen-9th-Ave-New-York-City.100051708.rd.ksp
Patzeria Family & Friends,Hell's Kitchen,Italian,$,4.4,4.5,4.5,4.1,3545,Moderate,Casual Dining,40.761457,-73.987591,https://www.kayak.com/New-York-Restaurants-Patzeria-Family-Friends.100280586.rd.ksp
Kings of Kobe,Hell's Kitchen,Burgers,$,4.7,4.9,4.3,4.5,15,Moderate,Casual Elegant,40.7614682,-74.0003405,https://www.kayak.com/New-York-Restaurants-Kings-of-Kobe-The-Burger-Hot-Dog-Monarchy.100041578.rd.ksp
Lillie's Times Square,Midtown,American,$,4.3,4,4.1,4.5,4917,Moderate,Casual Dining,40.7615503,-73.9859763,https://www.kayak.com/New-York-Restaurants-Lillie-s-Times-Square.100020098.rd.ksp
Imli urban indian food,Upper East Side,Indian,$,4.4,4.5,4.7,4.5,32,Moderate,Casual Dining,40.7616823,-73.9601642,https://www.kayak.com/New-York-Restaurants-Imli-urban-indian-food.100043698.rd.ksp
Trump Grill,Midtown,American,$,4.4,4.4,4.5,4.5,229,Low,Casual Dining,40.7623774,-73.9739888,https://www.kayak.com/New-York-Restaurants-Trump-Grill.100038309.rd.ksp
PizzArte,Midtown,Italian,$,4.7,4.7,4.7,4.3,168,Moderate,Casual Elegant,40.7629224,-73.9774359,https://www.kayak.com/New-York-Restaurants-PizzArte.100018911.rd.ksp
Haswell Green's,Midtown,American,$,4.6,4.4,4.5,4.7,745,Moderate,Casual Dining,40.762969,-73.98422,https://www.kayak.com/New-York-Restaurants-Haswell-Green-s.100051916.rd.ksp
Maya - New York,Upper East Side,Mexican,$,4.7,4.7,4.6,4.4,224,Moderate,Casual Elegant,40.7631741,-73.9597236,https://www.kayak.com/New-York-Restaurants-Maya-New-York.100011617.rd.ksp
UPPER EAST CAFE,Upper East Side,American,$,4.2,4,4,4,496,Moderate,Casual Dining,40.7634155,-73.9654893,https://www.kayak.com/New-York-Restaurants-UPPER-EAST-CAFE.100041551.rd.ksp
"Benihana - New York, NY",Midtown,Japanese,$,4.3,4.4,4.1,3.9,455,Moderate,Casual Dining,40.7634299,-73.9766652,https://www.kayak.com/New-York-Restaurants-Benihana-New-York.100021502.rd.ksp
Russian Vodka Room,Midtown,Russian,$,4.3,4.3,4.1,4.2,29,Moderate,Casual Elegant,40.7634867,-73.9847984,https://www.kayak.com/New-York-Restaurants-Russian-Vodka-Room.100037974.rd.ksp
Rice N Bean - Hell's Kitchen,Hell's Kitchen,Brazilian,$,4.6,4.6,4.6,4.1,731,Moderate,Casual Dining,40.7635514,-73.992415,https://www.kayak.com/New-York-Restaurants-Rice-N-Bean-Hell-s-Kitchen.100004374.rd.ksp
Rue 57,Midtown,French,$,4.3,4.2,4.2,4.1,17483,Moderate,Casual Dining,40.7640716,-73.97711,https://www.kayak.com/New-York-Restaurants-Rue-57.100018737.rd.ksp
bombay grill house,Hell's Kitchen,Indian,$,4.1,3.9,4.1,3.8,17,Moderate,Casual Dining,40.7641853,-73.988146,https://www.kayak.com/New-York-Restaurants-bombay-grill-house.100033423.rd.ksp
Tony's Di Napoli - Upper East Side,Upper East Side,Italian,$,4.7,4.7,4.6,4.5,410,Moderate,Casual Dining,40.7643584,-73.964245,https://www.kayak.com/New-York-Restaurants-Tony-s-Di-Napoli-Upper-East-Side.100037014.rd.ksp
Da Tommaso NYC,Hell's Kitchen,Italian,$,4.6,4.6,4.7,4.5,110,Moderate,Casual Elegant,40.7646826,-73.9847659,https://www.kayak.com/New-York-Restaurants-Da-Tommaso-NYC.100019662.rd.ksp
Jams - NYC,Midtown,American,$,4.4,4.3,4.2,4.4,5166,Moderate,Casual Elegant,40.7647657,-73.9766475,https://www.kayak.com/New-York-Restaurants-Jams-NYC.100024094.rd.ksp
Two E Bar and Lounge,Upper East Side,Bar / Lounge / Bottle Service,$,4.5,4.3,4.4,4.4,1709,Moderate,Casual Elegant,40.7651828,-73.9718937,https://www.kayak.com/New-York-Restaurants-Two-E-Bar-and-Lounge.100013329.rd.ksp
Tacuba Hell's Kitchen,Hell's Kitchen,Mexican,$,4.7,4.7,4.6,4.5,219,Moderate,Casual Dining,40.7654494,-73.9872699,https://www.kayak.com/New-York-Restaurants-Tacuba-Hell-s-Kitchen.100033088.rd.ksp
Brooklyn Diner,Midtown,American,$,4.3,4.3,4.3,4.2,3225,Moderate,Casual Dining,40.7656073,-73.9808744,https://www.kayak.com/New-York-Restaurants-Brooklyn-Diner.100028168.rd.ksp
Joe G Restaurant,Midtown,Italian,$,4.2,4.1,4.3,3.9,897,Moderate,Casual Elegant,40.765643,-73.983001,https://www.kayak.com/New-York-Restaurants-Joe-G-Restaurant.100019630.rd.ksp
Amaranth,Upper East Side,Mediterranean,$,4.6,4.6,4.6,4.5,224,Moderate,Casual Dining,40.765752,-73.9703344,https://www.kayak.com/New-York-Restaurants-Amaranth.101010807.rd.ksp
Medi Wine Bar & Restaurant,Hell's Kitchen,Mediterranean,$,4.4,4.5,4.4,4.5,85,Moderate,Casual Dining,40.7658333,-73.9875,https://www.kayak.com/New-York-Restaurants-Medi-Wine-Bar.100032971.rd.ksp
La Bergamote - Hell's Kitchen,Hell's Kitchen,French,$,4.6,4.6,4.2,4.2,13,Moderate,Casual Dining,40.766411,-73.991661,https://www.kayak.com/New-York-Restaurants-La-Bergamote-Hell-s-Kitchen.100001029.rd.ksp
Blue Seafood Bar & Restaurant,Hell's Kitchen,Seafood,$,4.6,4.7,4.7,4.5,136,Moderate,Casual Elegant,40.7668916,-73.9861952,https://www.kayak.com/New-York-Restaurants-Blue-Seafood-Bar.100026435.rd.ksp
5 Napkin Burger - Upper East Side,Upper East Side,Burgers,$,4.4,4.3,4.2,4.1,2281,Moderate,Casual Dining,40.7674315,-73.9596625,https://www.kayak.com/New-York-Restaurants-5-Napkin-Burger-Upper-East-Side.100025672.rd.ksp
ABA Turkish Restaurant,Hell's Kitchen,Turkish,$,4.5,4.6,4.4,4.1,69,Moderate,Casual Dining,40.7674386,-73.9839741,https://www.kayak.com/New-York-Restaurants-ABA-Turkish-Restaurant.100020136.rd.ksp
Gardenia Terrace,Hell's Kitchen,Mediterranean,$,4.6,4.4,4.3,4.5,1415,Moderate,Casual Elegant,40.7676505,-73.989397,https://www.kayak.com/New-York-Restaurants-Gardenia-Terrace.100040016.rd.ksp
Jean Claude 2,Upper East Side,French,$,4.5,4.4,4.6,4.4,153,Moderate,Casual Dining,40.7679708,-73.959192,https://www.kayak.com/New-York-Restaurants-Jean-Claude-2.100001781.rd.ksp
Rangoli - NYC,Upper East Side,Indian,$,4.4,4.5,4.4,4.1,295,Low,Fine Dining,40.7692944,-73.9582662,https://www.kayak.com/New-York-Restaurants-Rangoli-NYC.101003450.rd.ksp
2nd Floor Bar & Essen,Upper East Side,Bar / Lounge / Bottle Service,$,4.3,4.1,4.4,4.4,24,Moderate,Casual Dining,40.7695376,-73.9543809,https://www.kayak.com/New-York-Restaurants-2nd-Floor-Bar-Essen.100047342.rd.ksp
B. Cafe,Upper East Side,Belgian,$,4.4,4.5,4.2,4.4,151,Moderate,Casual Dining,40.7708948,-73.9576006,https://www.kayak.com/New-York-Restaurants-B-Cafe.100020886.rd.ksp
The Smith- Lincoln Square,Upper West Side,American,$,4.5,3.5,4.5,4.1,1882,Moderate,Casual Dining,40.7714976,-73.9819281,https://www.kayak.com/New-York-Restaurants-The-Smith-Lincoln-Square.100023032.rd.ksp
P.J. Clarke's-Lincoln Square,Upper West Side,American,$,4.3,4.1,4.2,4.1,4555,Moderate,Casual Dining,40.7715266,-73.982747,https://www.kayak.com/New-York-Restaurants-P-J-Clarke-s-Lincoln-Square.100049042.rd.ksp
Uva,Upper East Side,Italian,$,4.5,4.4,4.2,4.4,10422,Moderate,Casual Dining,40.7721955,-73.9556505,https://www.kayak.com/New-York-Restaurants-Uva.100017736.rd.ksp
Eats,Upper East Side,American,$,4,3.9,4.1,3.7,2867,Moderate,Casual Dining,40.7722402,-73.9607233,https://www.kayak.com/New-York-Restaurants-Eats.100018791.rd.ksp
Mighty Quinn's Barbeque-Upper East Side,Upper East Side,Barbecue,$,4,4,3.8,3.4,170,Moderate,Casual Dining,40.7723666,-73.9555388,https://www.kayak.com/New-York-Restaurants-Mighty-Quinn-s-Barbeque-Upper-East-Side.100051528.rd.ksp
Rosa Mexicano by Lincoln Center,Upper West Side,Mexican,$,4.2,4.3,4.2,4.1,871,Moderate,Casual Dining,40.7724641,-73.9834889,https://www.kayak.com/New-York-Restaurants-Rosa-Mexicano-by-Lincoln-Center.100039740.rd.ksp
Lincoln Ristorante,Upper West Side,Italian,$,4.5,4.5,4.5,4.6,429,Moderate,Casual Elegant,40.7733701,-73.983728,https://www.kayak.com/New-York-Restaurants-Lincoln-Ristorante.100970248.rd.ksp
83 1/2,Upper East Side,Italian,$,4.6,4.7,4.5,4.4,109,Moderate,Casual Elegant,40.7743831,-73.9646405,https://www.kayak.com/New-York-Restaurants-83-1-2.100022381.rd.ksp
San Matteo Pizzeria e Cucina,Upper East Side,Pizzeria,$,4.7,4.7,4.5,4.2,123,Moderate,Casual Dining,40.774666,-73.954402,https://www.kayak.com/New-York-Restaurants-San-Matteo-Pizzeria-e-Cucina.100035031.rd.ksp
AOC East,Upper East Side,Bistro,$,4.5,4.4,4.3,4.5,128,Moderate,Casual Dining,40.774691,-73.9507476,https://www.kayak.com/New-York-Restaurants-AOC-East.100036772.rd.ksp
Flex Mussels - UES,Upper East Side,Seafood,$,4.7,4.7,4.5,4.4,220,Moderate,Casual Dining,40.7753804,-73.9561648,https://www.kayak.com/New-York-Restaurants-Flex-Mussels-82nd-Street.100042246.rd.ksp
Wa Jeal,Upper East Side,Chinese,$,4.6,4.6,4.6,4.2,29,Moderate,Casual Dining,40.7754335,-73.9532956,https://www.kayak.com/New-York-Restaurants-Wa-Jeal.100023263.rd.ksp
Bua Thai Ramen & Robata Grill,Upper East Side,Thaï,$,4.4,4.4,4,4.1,54,Moderate,Casual Dining,40.7763615,-73.9530785,https://www.kayak.com/New-York-Restaurants-Bua-Thai-Ramen-Robata-Grill.100051257.rd.ksp
Parm Upper West Side,Upper West Side,Italian,$,4.3,4.2,4,3.7,6112,Moderate,Casual Dining,40.7764282,-73.9792883,https://www.kayak.com/New-York-Restaurants-Parm-Upper-West-Side.100042110.rd.ksp
La Pulperia - 2nd Ave,Upper East Side,Seafood,$,4.3,4.2,4.1,4.2,1774,Moderate,Casual Dining,40.7766148,-73.9523321,https://www.kayak.com/New-York-Restaurants-La-Pulperia-2nd-Ave.100044026.rd.ksp
Thai72,Upper West Side,Thaï,$,4.6,4.7,4.5,4.3,159,Moderate,Casual Dining,40.777616,-73.980042,https://www.kayak.com/New-York-Restaurants-Thai72.100042735.rd.ksp
Tenzan - 2nd Ave.,Midtown,Japanese,$,4.5,4.3,4.2,4,954,Moderate,Casual Dining,40.779641,-73.9502415,https://www.kayak.com/New-York-Restaurants-Tenzan-2nd-Ave-.100008378.rd.ksp
Piccolo Cafe - Amsterdam Ave,Upper West Side,Italian,$,4.2,4.3,4,4.1,620,Moderate,Casual Dining,40.780121,-73.9803132,https://www.kayak.com/New-York-Restaurants-Piccolo-Cafe-Amsterdam-Ave.100026279.rd.ksp
Bocado Cafe,Upper East Side,American,$,4.4,4.3,4.4,4.2,198,Moderate,Casual Dining,40.7802464,-73.9548496,https://www.kayak.com/New-York-Restaurants-Bocado-Cafe.100008200.rd.ksp
Siena Cafe,Upper East Side,Italian,$,4.4,4.4,4.3,4.2,131,Moderate,Casual Elegant,40.7806652,-73.9528593,https://www.kayak.com/New-York-Restaurants-Siena-Cafe.100042815.rd.ksp
Playa Betty's,Upper West Side,Mexican,$,4.3,4.2,4.3,4.1,294,Moderate,Casual Dining,40.7807796,-73.9803521,https://www.kayak.com/New-York-Restaurants-Playa-Betty-s.100036438.rd.ksp
The Milton,Upper East Side,American,$,4.4,4.3,4.1,4.3,1301,Moderate,Casual Elegant,40.7812533,-73.9489878,https://www.kayak.com/New-York-Restaurants-The-Milton.100009331.rd.ksp
Serafina 105,Upper West Side,Italian,$,4.4,4.3,4.4,4.3,74,Moderate,Casual Dining,40.7822435,-73.9805805,https://www.kayak.com/New-York-Restaurants-Serafina-105.100981256.rd.ksp
Peri Ela,Upper East Side,Turkish,$,4.2,4.2,4.2,4.1,1226,Moderate,Casual Elegant,40.782268,-73.953352,https://www.kayak.com/New-York-Restaurants-Peri-Ela.100009744.rd.ksp
Swagat,Upper West Side,Indian,$,4.2,4.4,4.2,3.7,1050,Moderate,Fine Dining,40.7835276,-73.97782,https://www.kayak.com/New-York-Restaurants-Swagat.100038269.rd.ksp
Bettola NYC,Upper West Side,European,$,4.1,4.1,4.1,4,1990,Moderate,Casual Dining,40.7836802,-73.9781663,https://www.kayak.com/New-York-Restaurants-Bettola.100018295.rd.ksp
Gazala’s,Upper West Side,Middle Eastern,$,4.6,4.6,4.4,4,54,Moderate,Casual Dining,40.784567,-73.977056,https://www.kayak.com/New-York-Restaurants-Gazalas.100052510.rd.ksp
Ashoka - Upper West Side,Upper West Side,Indian,$,4.4,4.5,4.3,4.1,385,Moderate,Casual Dining,40.7847644,-73.9730625,https://www.kayak.com/New-York-Restaurants-Ashoka-Upper-West-Side.100039080.rd.ksp
Blossom on Columbus,Upper West Side,Vegan,$,4.5,4.5,4.4,4.4,3780,Low,Casual Elegant,40.7853916,-73.9727142,https://www.kayak.com/New-York-Restaurants-Blossom-on-Columbus.100007848.rd.ksp
Hi-Life Restaurant - Upper West Side,Upper West Side,American,$,4.7,4.6,4.7,4.4,141,Moderate,Casual Dining,40.7855601,-73.9763113,https://www.kayak.com/New-York-Restaurants-Hi-Life-Restaurant-Upper-West-Side.100017531.rd.ksp
Good Enough to Eat,Upper West Side,Comfort food,$,4,3.8,3.9,3.7,642,Moderate,Casual Dining,40.7859964,-73.9727711,https://www.kayak.com/New-York-Restaurants-Good-Enough-to-Eat.100002041.rd.ksp
Alachi Masala,Upper West Side,Indian,$,4,4.1,4,3.6,242,Low,Casual Dining,40.7862007,-73.9764842,https://www.kayak.com/New-York-Restaurants-Alachi-Masala.100020753.rd.ksp
Spring Natural Kitchen - UWS,Upper West Side,American,$,4.4,4.2,4,4,2450,Moderate,Casual Dining,40.7870106,-73.9753676,https://www.kayak.com/New-York-Restaurants-Spring-Natural-Kitchen-UWS.100042196.rd.ksp
French Roast Uptown,Upper West Side,French,$,4.5,4.5,4.5,4.4,240,Moderate,Casual Dining,40.7876417,-73.9765902,https://www.kayak.com/New-York-Restaurants-French-Roast-Uptown.100026970.rd.ksp
Trattoria iL Gusto Wine Bar,Upper West Side,Italian,$,4.7,4.5,4.6,4.5,54,Moderate,Casual Dining,40.7892987,-73.9697758,https://www.kayak.com/New-York-Restaurants-Trattoria-iL-Gusto-Wine-Bar.100039516.rd.ksp
The Lexington Social,East Harlem,International,$,4.3,4.2,4.2,4,110,Moderate,Casual Dining,40.7906645,-73.9476244,https://www.kayak.com/New-York-Restaurants-The-Lexington-Social.100018250.rd.ksp
Nocciola Ristorante,East Harlem,Italian,$,4.4,4.4,4.5,4.2,376,Low,Casual Elegant,40.7975043,-73.9383816,https://www.kayak.com/New-York-Restaurants-Nocciola-Ristorante.100028686.rd.ksp
Maxwell's Central Park,East Harlem,American,$,4.2,3.8,3.9,4,13,Moderate,Casual Dining,40.7977009,-73.9483825,https://www.kayak.com/New-York-Restaurants-Maxwell-s-Central-Park.100049326.rd.ksp
Arco Cafe,Upper West Side,Regional Italian (Sardinia),$,4.7,4.8,4.7,4.5,108,Moderate,Casual Dining,40.7987331,-73.9672189,https://www.kayak.com/New-York-Restaurants-Arco-Cafe.100005549.rd.ksp
The Ellington,Upper West Side,American,$,4.3,4.1,4.2,4.2,1337,Moderate,Casual Dining,40.8006763,-73.9658056,https://www.kayak.com/New-York-Restaurants-The-Ellington.100002075.rd.ksp
Amity Hall Uptown,Upper West Side,Bar / Lounge / Bottle Service,$,4.5,4.3,4.4,4.3,360,Moderate,Casual Dining,40.8022491,-73.9646077,https://www.kayak.com/New-York-Restaurants-Amity-Hall-Uptown.100027218.rd.ksp
Barawine,Harlem,French,$,4.1,4.2,3.8,4.2,44,Moderate,Casual Elegant,40.80454,-73.9474459,https://www.kayak.com/New-York-Restaurants-Barawine.100003044.rd.ksp
Lido,Harlem,Italian,$,4.7,4.6,4.7,4.6,220,Moderate,Casual Elegant,40.8048815,-73.95467744,https://www.kayak.com/New-York-Restaurants-Lido.100018258.rd.ksp
Shaking Crab - Upper West Side,Morningside Heights,Cajun,$,4.3,4.4,4.2,4,12,Moderate,Casual Dining,40.8052227,-73.9663923,https://www.kayak.com/New-York-Restaurants-Shaking-Crab-Upper-West-Side.100043597.rd.ksp
Chocolat Restaurant & Bar,Harlem,Southern,$,4,4.1,4,4.1,2769,Moderate,Casual Elegant,40.806985,-73.9537487,https://www.kayak.com/New-York-Restaurants-Chocolat-Restaurant-Bar.100052733.rd.ksp
Red Rooster Harlem,Harlem,Unspecified,$,4.6,4.5,4.7,4.6,742,Moderate,Casual Elegant,40.80796595,-73.94491055,https://www.kayak.com/New-York-Restaurants-Red-Rooster-Harlem.100015937.rd.ksp
RDV Harlem,Harlem,French,$,4.6,4.6,4.6,4.5,214,Moderate,Elegant Dining,40.8115504,-73.9464769,https://www.kayak.com/New-York-Restaurants-RDV-Harlem.100034038.rd.ksp
Maison Harlem,Harlem,French,$,4.6,4.5,4.4,4.6,130,Moderate,Casual Dining,40.8121987,-73.9516713,https://www.kayak.com/New-York-Restaurants-Maison-Harlem.100000958.rd.ksp
Bettolona,Morningside Heights,Italian,$,4.3,4.2,4.3,4.1,486,Moderate,Casual Dining,40.8141174,-73.9597655,https://www.kayak.com/New-York-Restaurants-Bettolona.100018300.rd.ksp
Ponty Bistro - Harlem,Harlem,French,$,4.4,4.4,4.2,4.3,1213,Moderate,Casual Dining,40.8176235,-73.9416508,https://www.kayak.com/New-York-Restaurants-Ponty-Bistro-Harlem.100006655.rd.ksp
Renaissance Harlem,Harlem,American,$,4.2,4.1,4,4,58,Moderate,Casual Dining,40.82131365,-73.94172386,https://www.kayak.com/New-York-Restaurants-Renaissance-Harlem.101008856.rd.ksp
Fumo Harlem,Harlem,Italian,$,4.7,4.7,4.5,4.6,1440,Moderate,Casual Dining,40.8214251,-73.9506357,https://www.kayak.com/New-York-Restaurants-Fumo-Harlem.100027789.rd.ksp
The Porterhouse Brewing Company Bar + The Lovelace Cocktail & Gin Bar,Financial District,American,$$,4.4,4.2,4,4.5,328,Moderate,Casual Dining,40.7035474,-74.0108436,https://www.kayak.com/New-York-Restaurants-The-Lovelace-Cocktail-Gin-Bar.100047345.rd.ksp
Joseph's Restaurant,Financial District,Italian,$$,4.5,4.4,4.6,4.3,42,Moderate,Fine Dining,40.7048541,-74.0095999,https://www.kayak.com/New-York-Restaurants-Joseph-s-Restaurant.100021565.rd.ksp
2 West at The Wagner Hotel,Battery Park City,Contemporary American,$$,4,4,4.1,3.9,1245,Low,Casual Dining,40.7055671,-74.0177767,https://www.kayak.com/New-York-Restaurants-2-West-at-The-Wagner-Hotel.100051562.rd.ksp
Inatteso Pizza Bar,Battery Park City,Italian,$$,4.6,4.7,4.5,4.5,426,Low,Casual Dining,40.7060267,-74.0170497,https://www.kayak.com/New-York-Restaurants-Inatteso-Pizza-Bar.100042159.rd.ksp
Cipriani Club 55 Restaurant,Financial District,Italian,$$,4.3,4.2,4.3,4.3,3771,Moderate,Casual Elegant,40.7061756,-74.0093957,https://www.kayak.com/New-York-Restaurants-Cipriani-Club-55-Restaurant.100964838.rd.ksp
Giardino D'Oro,Financial District,Italian,$$,4.7,4.6,4.7,4.5,39,Moderate,Fine Dining,40.7074557,-74.0072562,https://www.kayak.com/New-York-Restaurants-Giardino-D-Oro.100022809.rd.ksp
Da Claudio Ristorante,Financial District,Italian,$$,4.6,4.5,4.6,4.4,97,Moderate,Casual Elegant,40.7108219,-74.0076301,https://www.kayak.com/New-York-Restaurants-Da-Claudio-Ristorante.100007819.rd.ksp
Merchants River House,Battery Park City,American,$$,4.2,4,4,4.3,4915,Moderate,Casual Dining,40.7113232,-74.0178841,https://www.kayak.com/New-York-Restaurants-Merchants-River-House.100016274.rd.ksp
Trading Post NYC,Financial District,American,$$,4.4,4.3,4.3,4.3,2129,Moderate,Casual Elegant,40.7127753,-74.0059728,https://www.kayak.com/New-York-Restaurants-Trading-Post-NYC.100022985.rd.ksp
Plant Food + Wine New York,East Village,Vegan,$$,4.5,4.4,4.6,4.5,339,Moderate,Casual Dining,40.7127753,-74.0059728,https://www.kayak.com/New-York-Restaurants-Plant-Food-Wine-New-York.100050506.rd.ksp
ONE Dine at One World Observatory,Financial District,American,$$,4.5,4.4,4.5,4.6,405,Moderate,Casual Dining,40.7130062,-74.013173,https://www.kayak.com/New-York-Restaurants-ONE-Dine-at-One-World-Observatory.100968861.rd.ksp
PJ Clarkes on the Hudson,Battery Park City,American,$$,4.4,4.3,4.3,4.5,2450,Moderate,Casual Dining,40.7137112,-74.0162387,https://www.kayak.com/New-York-Restaurants-PJ-Clarkes-on-the-Hudson.101017008.rd.ksp
Del Frisco's Grille - NYC,Midtown,Steakhouse,$$,4.5,4.5,4.4,4.3,481,Moderate,Casual Dining,40.714026,-74.0150366,https://www.kayak.com/New-York-Restaurants-Del-Frisco-s-Grille-NYC.100019020.rd.ksp
Benares - Tribeca,Tribeca,Indian,$$,4.3,4.3,4.1,4,1310,Moderate,Casual Dining,40.7141066,-74.0092265,https://www.kayak.com/New-York-Restaurants-Benares-Tribeca.100022984.rd.ksp
Gran Morsi,Tribeca,Italian,$$,4.7,4.7,4.6,4.6,88,Moderate,Casual Elegant,40.7143289,-74.0077874,https://www.kayak.com/New-York-Restaurants-Gran-Morsi.100006980.rd.ksp
Warren 77,Tribeca,American,$$,4.5,4.3,4.1,4.4,55,Moderate,Casual Dining,40.7151232,-74.0103245,https://www.kayak.com/New-York-Restaurants-Warren-77.100018346.rd.ksp
Chambers,Tribeca,Market Cuisine,$$,4.9,4.9,4.9,4.8,256,Moderate,Casual Elegant,40.715575,-74.008857,https://www.kayak.com/New-York-Restaurants-Racines-NY.100005375.rd.ksp
Serafina Tribeca,Tribeca,Italian,$$,4.5,4.5,4.4,4.4,208,Moderate,Casual Dining,40.715813,-74.0087939,https://www.kayak.com/New-York-Restaurants-Serafina-Tribeca.100979696.rd.ksp
Tiny's & the Bar Upstairs,Tribeca,Contemporary American,$$,4.5,4.4,4.4,4.6,191,Moderate,Casual Dining,40.7168221,-74.0080094,https://www.kayak.com/New-York-Restaurants-Tiny-s-the-Bar-Upstairs.101018238.rd.ksp
Khe-Yo,Tribeca,Laotian,$$,4.5,4.5,4.4,4.3,164,Moderate,Casual Elegant,40.7169021,-74.0086047,https://www.kayak.com/New-York-Restaurants-Khe-Yo.100027043.rd.ksp
Casa Mezcal,Lower East Side,Regional Mexican,$$,4.3,4.2,3.9,4.3,796,Moderate,Casual Elegant,40.7179187,-73.9901066,https://www.kayak.com/New-York-Restaurants-Casa-Mezcal.100002530.rd.ksp
Petrarca Cucina e Vino,Tribeca,Italian,$$,4.6,4.6,4.7,4.5,69,Moderate,Casual Dining,40.7189298,-74.0045309,https://www.kayak.com/New-York-Restaurants-Petrarca-Cucina-e-Vino.100007822.rd.ksp
Tamarind - Tribeca,Tribeca,Indian,$$,4.8,4.7,4.8,4.7,479,Moderate,Fine Dining,40.7191453,-74.0089504,https://www.kayak.com/New-York-Restaurants-Tamarind-Tribeca.100014735.rd.ksp
Pig and Khao,Lower East Side,Southeast Asian,$$,4.6,4.6,4.3,4.2,7651,Moderate,Casual Dining,40.7192889,-73.9848028,https://www.kayak.com/New-York-Restaurants-Pig-and-Khao.100000556.rd.ksp
Tomiño - Taberna Gallega,Little Italy,Spanish,$$,4.7,4.7,4.7,4.6,1350,Moderate,Casual Dining,40.7194026,-73.9969281,https://www.kayak.com/New-York-Restaurants-Tomino-Taberna-Gallega.100041977.rd.ksp
Tribeca Grill,Tribeca,American,$$,4.5,4.5,4.6,4.5,252,Moderate,Casual Elegant,40.7195736,-74.0100361,https://www.kayak.com/New-York-Restaurants-Tribeca-Grill.100017372.rd.ksp
Piacere,Little Italy,Italian,$$,4.5,4.5,4.4,4.4,710,Moderate,Casual Dining,40.7196837,-73.9951032,https://www.kayak.com/New-York-Restaurants-Piacere.100037991.rd.ksp
Antique Garage Tribeca,Tribeca,Mediterranean,$$,4.6,4.5,4.4,4.8,88,Moderate,Casual Dining,40.7197223,-74.0039458,https://www.kayak.com/New-York-Restaurants-Antique-Garage-Tribeca.101013191.rd.ksp
Locanda Verde,Tribeca,Italian,$$,4.7,4.7,4.5,4.6,204,Moderate,Casual Dining,40.7198401,-74.0099344,https://www.kayak.com/New-York-Restaurants-Locanda-Verde.100011214.rd.ksp
Yves,Tribeca,French,$$,4.5,4.3,4.3,4.4,86,Moderate,Casual Elegant,40.7201805,-74.009907,https://www.kayak.com/New-York-Restaurants-Yves.100041793.rd.ksp
Beauty & Essex- New York,Lower East Side,Unspecified,$$,4.6,4.6,4.5,4.7,923,Moderate,Casual Elegant,40.7204577,-73.9870469,https://www.kayak.com/New-York-Restaurants-Beauty-Essex-New-York.100016509.rd.ksp
Balvanera,Lower East Side,Argentinean,$$,4.6,4.6,4.5,4.4,1590,Moderate,Casual Elegant,40.7205874,-73.9853737,https://www.kayak.com/New-York-Restaurants-Balvanera.100007091.rd.ksp
City Vineyard & Wine Garden at Pier 26,Tribeca,Contemporary American,$$,4.2,3.9,3.9,4.5,2888,Moderate,Casual Dining,40.7211424,-74.0130846,https://www.kayak.com/New-York-Restaurants-City-Vineyard-Wine-Garden-at-Pier-26.100030690.rd.ksp
Antique Garage Soho,SoHo,Mediterranean,$$,4.4,4.3,4.3,4.5,137,Moderate,Casual Dining,40.7214812,-74.0013728,https://www.kayak.com/New-York-Restaurants-Antique-Garage-Soho.100024615.rd.ksp
Taverna Di Bacco,Lower East Side,Italian,$$,4.5,4.5,4.5,4.4,886,Moderate,Casual Elegant,40.7218756,-73.9875758,https://www.kayak.com/New-York-Restaurants-Taverna-Di-Bacco.100019708.rd.ksp
A Pasta Bar,SoHo,Italian,$$,4.6,4.6,4.4,4.5,1972,Moderate,Casual Dining,40.7223733,-74.0039913,https://www.kayak.com/New-York-Restaurants-Sola-Pasta-Bar.100040971.rd.ksp
Spaghetti Incident,Bowery,Italian,$$,4.7,4.7,4.5,4.5,554,Moderate,Casual Dining,40.722402,-73.9899587,https://www.kayak.com/New-York-Restaurants-Spaghetti-Incident.100042692.rd.ksp
Emporio,Nolita,Italian,$$,4.7,4.7,4.5,4.6,327,Moderate,Casual Dining,40.7226287,-73.995291,https://www.kayak.com/New-York-Restaurants-Emporio.100033880.rd.ksp
Fonda - East Village,East Village,Contemporary Mexican,$$,4.4,4.4,4.3,4.1,3308,Moderate,Casual Dining,40.7228972,-73.9829944,https://www.kayak.com/New-York-Restaurants-Fonda-East-Village.100020343.rd.ksp
The Crosby Bar,SoHo,American,$$,4.8,4.6,4.6,4.8,207,Moderate,Casual Elegant,40.7230556,-73.9973799,https://www.kayak.com/New-York-Restaurants-The-Crosby-Bar.100022826.rd.ksp
Sant Ambroeus SoHo,Nolita,Italian,$$,4.7,4.6,4.5,4.5,5373,Moderate,Casual Dining,40.7234824,-73.9964503,https://www.kayak.com/New-York-Restaurants-Sant-Ambroeus-SoHo.100003311.rd.ksp
Aurora Soho,SoHo,Italian,$$,4.8,4.8,4.6,4.6,237,Moderate,Casual Elegant,40.7235403,-74.0031561,https://www.kayak.com/New-York-Restaurants-Aurora-Soho.100005026.rd.ksp
Cipriani Downtown,SoHo,Italian,$$,4.4,4.4,4.4,4.3,7825,Moderate,Casual Elegant,40.7236281,-74.0028707,https://www.kayak.com/New-York-Restaurants-Cipriani-Downtown.100980853.rd.ksp
Pera Soho,SoHo,Mediterranean,$$,4.4,4.3,4.2,4.5,222,Moderate,Casual Dining,40.723831,-74.0033719,https://www.kayak.com/New-York-Restaurants-Pera-Soho.100020357.rd.ksp
Tuome,East Village,Contemporary American,$$,4.6,4.7,4.4,4.4,3425,Moderate,Casual Dining,40.724053,-73.9828525,https://www.kayak.com/New-York-Restaurants-Tuome.100007103.rd.ksp
Lavagna - NYC,East Village,Italian,$$,4.8,3.5,4.7,4.8,160,Moderate,Casual Elegant,40.724121,-73.9823587,https://www.kayak.com/New-York-Restaurants-Lavagna-NYC.100014142.rd.ksp
Kafana,East Village,Eastern European,$$,4.6,4.6,4.4,4.5,2050,Moderate,Casual Dining,40.7243534,-73.9784734,https://www.kayak.com/New-York-Restaurants-Kafana.100019261.rd.ksp
BAAR BAAR,East Village,Contemporary Indian,$$,4.4,4.5,4.4,4.6,50,Moderate,Casual Dining,40.7244268,-73.9915125,https://www.kayak.com/New-York-Restaurants-BAAR-BAAR.100042495.rd.ksp
Socarrat Paella Bar - Nolita,Nolita,Spanish,$$,4.7,4.7,4.8,4.7,119,Moderate,Casual Elegant,40.72448,-73.99504,https://www.kayak.com/New-York-Restaurants-Socarrat-Paella-Bar-Nolita.100017538.rd.ksp
La Sirene Soho,Hudson Square,French,$$,4.7,4.8,4.7,4.6,107,Moderate,Casual Elegant,40.7244813,-74.0055551,https://www.kayak.com/New-York-Restaurants-La-Sirene.100010401.rd.ksp
Bistro Les Amis,SoHo,French,$$,4.6,3.5,4.7,4.6,95,Moderate,Casual Elegant,40.7247352,-74.0025962,https://www.kayak.com/New-York-Restaurants-Bistro-Les-Amis.100007090.rd.ksp
Boqueria Soho,SoHo,Tapas / Small Plates,$$,4.5,4.4,4.6,4.3,60,Moderate,Casual Dining,40.7248202,-74.0022169,https://www.kayak.com/New-York-Restaurants-Boqueria-Soho.100024811.rd.ksp
Altesi Downtown,SoHo,Italian,$$,4.5,4.5,4.5,4.3,40,Moderate,Casual Elegant,40.7250957,-74.0033108,https://www.kayak.com/New-York-Restaurants-Altesi-Downtown.100038126.rd.ksp
SAN CARLO Osteria Piemonte,SoHo,Italian,$$,4.8,4.8,4.8,4.7,193,Moderate,Casual Elegant,40.7251488,-74.0022186,https://www.kayak.com/New-York-Restaurants-SAN-CARLO-Osteria-Piemonte.100028062.rd.ksp
AQUAGRILL,SoHo,Seafood,$$,4.7,4.7,4.6,4.4,1401,Moderate,Fine Dining,40.7253226,-74.0038251,https://www.kayak.com/New-York-Restaurants-AQUAGRILL.100009280.rd.ksp
' BAR VERDE,East Village,Mexican,$$,4.6,4.6,4.6,4.5,83,Moderate,Casual Dining,40.7260386,-73.9897726,https://www.kayak.com/New-York-Restaurants-BAR-VERDE.100016361.rd.ksp
Pylos,East Village,Greek,$$,4.8,4.8,4.8,4.7,139,Moderate,Casual Elegant,40.7261637,-73.9840813,https://www.kayak.com/New-York-Restaurants-Pylos.100013888.rd.ksp
Pinch Chinese,SoHo,Chinese,$$,4.6,4.7,4.4,4.4,829,Moderate,Casual Dining,40.7263749,-74.0018624,https://www.kayak.com/New-York-Restaurants-Pinch-Chinese.100050719.rd.ksp
The Ainsworth- East Village,East Village,American,$$,4.1,4.1,3.9,3.9,513,Moderate,Casual Dining,40.7264773,-73.9815337,https://www.kayak.com/New-York-Restaurants-The-Ainsworth-East-Village.100045341.rd.ksp
The Dutch,SoHo,American,$$,4.5,4.5,4.5,4.5,229,Moderate,Home Style,40.7265551,-74.0021692,https://www.kayak.com/New-York-Restaurants-The-Dutch.100015779.rd.ksp
Il Buco Alimentari & Vineria,NoHo,Italian,$$,4.5,4.5,4.2,4.2,13038,Moderate,Casual Elegant,40.7265607,-73.9924685,https://www.kayak.com/New-York-Restaurants-Il-Buco-Alimentari-Vineria.100020064.rd.ksp
Risotteria Melotti,East Village,Italian,$$,4.8,4.8,4.8,4.6,107,Moderate,Casual Dining,40.7266288,-73.9883765,https://www.kayak.com/New-York-Restaurants-Risotteria-Melotti.100045608.rd.ksp
San Marino Restaurant - Soho,Hudson Square,Italian,$$,4.6,4.5,4.8,4.3,16,Moderate,Casual Dining,40.7269228,-74.0060095,https://www.kayak.com/New-York-Restaurants-San-Marino-Soho.100020390.rd.ksp
OIJI,East Village,Korean,$$,4.7,4.7,4.7,4.5,5655,Moderate,Casual Dining,40.7272708,-73.9858313,https://www.kayak.com/New-York-Restaurants-OIJI.100009139.rd.ksp
Lafayette,NoHo,French,$$,4.5,4.3,4.3,4.6,186,Moderate,Casual Elegant,40.7275742,-73.993705,https://www.kayak.com/New-York-Restaurants-Lafayette.100001020.rd.ksp
Lupa,Manhattan,Italian,$$,4.4,4.5,4.3,4.2,24595,Moderate,Casual Dining,40.7276391,-74.000211,https://www.kayak.com/New-York-Restaurants-Lupa.100002557.rd.ksp
Song' E Napule - 146 W Houston St.,Manhattan,Italian,$$,4.8,4.9,4.6,4.4,238,Moderate,Casual Dining,40.7281274,-74.001839,https://www.kayak.com/New-York-Restaurants-Song-E-Napule.100034690.rd.ksp
Villa Mosconi,Manhattan,Italian,$$,4.6,4.6,4.7,4.5,60,Moderate,Fine Dining,40.7285324,-74.0018748,https://www.kayak.com/New-York-Restaurants-Villa-Mosconi.100984119.rd.ksp
Toloache Thompson St.,Manhattan,Mexican,$$,4.4,4.4,4.2,4,3335,Moderate,Casual Dining,40.728719,-73.999578,https://www.kayak.com/New-York-Restaurants-Toloache-Thompson-St-.100003052.rd.ksp
Old Tbilisi,Manhattan,Georgian,$$,4.6,4.5,4.4,4.5,50,Moderate,Casual Dining,40.7288339,-74.0007577,https://www.kayak.com/New-York-Restaurants-Old-Tbilisi.100080035.rd.ksp
Tarallucci e Vino - East Village,East Village,Italian,$$,4.5,4.4,4.4,4.3,554,Moderate,Casual Elegant,40.7289402,-73.9845472,https://www.kayak.com/New-York-Restaurants-Tarallucci-e-Vino-East-Village.100051729.rd.ksp
The Mermaid Oyster Bar,Manhattan,Seafood,$$,4.7,4.6,4.6,4.6,351,Moderate,Casual Dining,40.7290243,-74.0014899,https://www.kayak.com/New-York-Restaurants-The-Mermaid-Oyster-Bar.100015202.rd.ksp
Negril Village,Manhattan,Caribbean,$$,4.3,4.4,4.2,4.2,4428,Moderate,Casual Dining,40.729459,-73.9983466,https://www.kayak.com/New-York-Restaurants-Negril-Village.100013807.rd.ksp
Monte's Trattoria,Manhattan,Italian,$$,4.6,4.6,4.5,4.6,201,Moderate,Casual Dining,40.7295395,-74.0010016,https://www.kayak.com/New-York-Restaurants-Monte-s-Trattoria.100007322.rd.ksp
Market Table,West Village,Contemporary American,$$,4.7,4.7,4.6,4.6,115,Moderate,Casual Elegant,40.72978,-74.0037432,https://www.kayak.com/New-York-Restaurants-Market-Table.100007536.rd.ksp
The Boil Waverly,Manhattan,Creole / Cajun / Southern,$$,4.7,4.7,4.5,4.5,8115,Moderate,Casual Dining,40.7301569,-73.9941457,https://www.kayak.com/New-York-Restaurants-The-Boil-Waverly.100030054.rd.ksp
The Clam,Greenwich Village,Seafood,$$,4.8,4.8,4.8,4.7,90,Moderate,Casual Elegant,40.7303199,-74.0065674,https://www.kayak.com/New-York-Restaurants-The-Clam.100001938.rd.ksp
EN Japanese Brasserie,West Village,Japanese,$$,4.6,4.6,4.5,4.6,306,Moderate,Casual Elegant,40.7304801,-74.0070023,https://www.kayak.com/New-York-Restaurants-EN-Japanese-Brasserie.100014208.rd.ksp
The Leroy House,West Village,American,$$,4.7,4.6,4.6,4.7,2469,Moderate,Casual Dining,40.730622,-74.006532,https://www.kayak.com/New-York-Restaurants-The-Leroy-House-f-k-a-Harwood-on-Hudson-.100051198.rd.ksp
La Loteria,West Village,Contemporary Mexican,$$,4.5,4.5,4.3,4.2,2473,Moderate,Casual Elegant,40.7307928,-74.004204,https://www.kayak.com/New-York-Restaurants-La-Loteria.100008436.rd.ksp
The Loyal,West Village,American,$$,4.5,4.4,4.4,4.4,4703,Moderate,Casual Elegant,40.7321386,-74.0033283,https://www.kayak.com/New-York-Restaurants-The-Loyal.100041027.rd.ksp
North Square,Manhattan,American,$$,4.7,4.6,4.4,4.3,54,Moderate,Casual Dining,40.7323868,-73.9986529,https://www.kayak.com/New-York-Restaurants-North-Square.100040259.rd.ksp
Margaux,Manhattan,Mediterranean,$$,4.3,4.1,3.9,4.5,35,Moderate,Casual Dining,40.7325933,-73.9968968,https://www.kayak.com/New-York-Restaurants-Margaux.101015969.rd.ksp
Suprema Provisions,West Village,Italian,$$,4.5,4.4,4.3,4.4,1912,Moderate,Casual Dining,40.732643,-74.0036606,https://www.kayak.com/New-York-Restaurants-Suprema-Provisions.100030610.rd.ksp
Boucherie - West Village,West Village,French,$$,4.4,4.4,4.3,4.6,460,Moderate,Casual Elegant,40.7330542,-74.0029005,https://www.kayak.com/New-York-Restaurants-Boucherie-West-Village.100034175.rd.ksp
Bowery Road,East Village,American,$$,4.2,4.1,4.1,4.1,67,Moderate,Casual Dining,40.7333186,-73.9901732,https://www.kayak.com/New-York-Restaurants-Bowery-Road.101008741.rd.ksp
L'Artusi,West Village,Italian,$$,4.6,4.6,4.5,4.4,13579,Moderate,Casual Elegant,40.7337833,-74.0051396,https://www.kayak.com/New-York-Restaurants-LArtusi.100047835.rd.ksp
Casa Apicii,Manhattan,Italian,$$,4.5,4.4,4.3,4.5,3981,Moderate,Casual Elegant,40.733814,-73.9987422,https://www.kayak.com/New-York-Restaurants-Casa-Apicii.100030476.rd.ksp
Cowgirl,West Village,Barbecue,$$,4.5,4.3,4.4,4.4,1169,Moderate,Casual Dining,40.7338239,-74.0064618,https://www.kayak.com/New-York-Restaurants-Cowgirl.100047879.rd.ksp
Delice & Sarrasin,West Village,Vegan,$$,4.8,4.8,4.8,4.7,94,Moderate,Casual Dining,40.7338495,-74.0005994,https://www.kayak.com/New-York-Restaurants-Delice-Sarrasin.100010243.rd.ksp
Empellon Taqueria,West Village,Contemporary Mexican,$$,4.4,4.3,4.2,4.1,10265,Moderate,Casual Dining,40.7341405,-74.0030338,https://www.kayak.com/New-York-Restaurants-Empellon-Taqueria.100017652.rd.ksp
Quality Eats West Village,West Village,American,$$,4.5,4.6,4.4,4.4,301,Moderate,Casual Dining,40.734487,-74.0000708,https://www.kayak.com/New-York-Restaurants-Quality-Eats-West-Village.100359523.rd.ksp
Le Baratin,West Village,Contemporary French / American,$$,4.8,4.7,4.7,4.7,126,Moderate,Casual Dining,40.7349776,-73.9999664,https://www.kayak.com/New-York-Restaurants-Le-Baratin.100003210.rd.ksp
Oak Tuscan Truffle Lounge,West Village,Italian,$$,4.8,4.7,4.8,4.6,500,Low,Casual Elegant,40.7350283,-74.0000164,https://www.kayak.com/New-York-Restaurants-Oak-Tuscan-Truffle-Lounge.100052562.rd.ksp
Upholstery Store: Food and Wine,West Village,Contemporary American,$$,4.5,4.4,4.5,4.4,285,Moderate,Casual Dining,40.7352507,-74.0082526,https://www.kayak.com/New-York-Restaurants-Upholstery-Store-Food-and-Wine.100050681.rd.ksp
Morandi,West Village,Italian,$$,4.5,4.4,4.3,4.4,14541,Moderate,Casual Dining,40.7353587,-74.0014906,https://www.kayak.com/New-York-Restaurants-Morandi.100020791.rd.ksp
Sant Ambroeus - West Village,West Village,Italian,$$,4.6,4.5,4.4,4.5,4547,Moderate,Casual Elegant,40.7354463,-74.0031986,https://www.kayak.com/New-York-Restaurants-Sant-Ambroeus-West-Village.100015577.rd.ksp
Casa Mono,Gramercy,Spanish,$$,4.7,4.8,4.6,4.6,470,Moderate,Casual Elegant,40.7358936,-73.9871361,https://www.kayak.com/New-York-Restaurants-Casa-Mono.100013333.rd.ksp
Da Andrea,Manhattan,Italian,$$,4.6,4.6,4.6,4.5,528,Moderate,Casual Dining,40.7361321,-73.995801,https://www.kayak.com/New-York-Restaurants-Da-Andrea.100026446.rd.ksp
Society Cafe,Manhattan,American,$$,4.6,4.6,4.4,4.7,99,Moderate,Casual Elegant,40.73618,-73.9966,https://www.kayak.com/New-York-Restaurants-Society-Cafe.100035884.rd.ksp
Javelina - Union Square,Gramercy,Tex-Mex,$$,4.5,4.5,4.4,4.3,133,Moderate,Casual Dining,40.7368197,-73.9874428,https://www.kayak.com/New-York-Restaurants-Javelina.100008166.rd.ksp
Boucherie - Union Square,Gramercy,French,$$,4.4,4.4,4.4,4.6,434,Moderate,Casual Elegant,40.7372552,-73.9882246,https://www.kayak.com/New-York-Restaurants-Boucherie-Union-Square.100045483.rd.ksp
Tea & Sympathy,West Village,British,$$,4.4,4.4,4.3,4.2,434,Moderate,Casual Dining,40.738313,-74.00193,https://www.kayak.com/New-York-Restaurants-Tea-Sympathy.100030593.rd.ksp
Maialino,Gramercy,Italian,$$,4.5,4.4,4.3,4.4,20414,Moderate,Casual Dining,40.7384152,-73.9857609,https://www.kayak.com/New-York-Restaurants-Maialino.100013829.rd.ksp
High Street on Hudson,West Village,American,$$,4.4,4.4,4.4,4.4,72,Moderate,Casual Dining,40.7388422,-74.0056803,https://www.kayak.com/New-York-Restaurants-High-Street-on-Hudson.100025984.rd.ksp
"Novitá - New York City, Manhattan",Gramercy,Italian,$$,4.7,4.7,4.6,4.6,423,Moderate,Casual Elegant,40.7392385,-73.9864787,https://www.kayak.com/New-York-Restaurants-Novita-New-York-City-Manhattan.100012606.rd.ksp
Santina,Meatpacking District,Italian,$$,4.5,4.4,4.2,4.4,13188,Moderate,Casual Dining,40.7396039,-74.0088855,https://www.kayak.com/New-York-Restaurants-Santina.100007781.rd.ksp
Giorgio's of Gramercy,Flatiron District,Contemporary American,$$,4.7,4.6,4.8,4.6,91,Moderate,Casual Elegant,40.7396065,-73.9886459,https://www.kayak.com/New-York-Restaurants-Giorgio-s-of-Gramercy.100003204.rd.ksp
STK - Rooftop,Meatpacking District,Contemporary American,$$,4.2,4.3,4.2,4.3,334,Moderate,Casual Dining,40.7399368,-74.0072542,https://www.kayak.com/New-York-Restaurants-STK-Rooftop.100979328.rd.ksp
Riverpark,Midtown,American,$$,4.5,4.4,4.4,4.6,11783,Moderate,Casual Elegant,40.7400445,-73.974369,https://www.kayak.com/New-York-Restaurants-Riverpark.100016021.rd.ksp
Boqueria Flatiron,Chelsea,Tapas / Small Plates,$$,4.6,4.6,4.4,4.3,5125,Moderate,Casual Elegant,40.7402389,-73.9937667,https://www.kayak.com/New-York-Restaurants-Boqueria-Flatiron.100024808.rd.ksp
Merakia,Flatiron District,Greek,$$,4.2,4.3,4.1,4.4,22,Moderate,Casual Elegant,40.7406085,-73.9911093,https://www.kayak.com/New-York-Restaurants-Merakia.100986228.rd.ksp
Periyali,Flatiron District,Greek,$$,4.7,4.7,4.7,4.6,144,Moderate,Casual Dining,40.7406277,-73.9929625,https://www.kayak.com/New-York-Restaurants-Periyali.101010050.rd.ksp
Trattoria Zero Otto Nove - Flatiron,Flatiron District,Italian,$$,4.7,4.7,4.7,4.5,186,Moderate,Casual Dining,40.7408377,-73.9915684,https://www.kayak.com/New-York-Restaurants-Trattoria-Zero-Otto-Nove.100021774.rd.ksp
Jue Lan Club,Flatiron District,Chinese,$$,4.4,4.4,4.3,4.5,277,Moderate,Casual Dining,40.7409461,-73.9935311,https://www.kayak.com/New-York-Restaurants-Jue-Lan-Club.100027201.rd.ksp
The Little Beet Table,Flatiron District,American,$$,4.8,4.7,4.7,4.5,194,Moderate,Casual Dining,40.741086,-73.985333,https://www.kayak.com/New-York-Restaurants-The-Little-Beet-Table.100007039.rd.ksp
SushiNao,Chelsea,Japanese,$$,4.5,4.5,4.5,4.6,1335,Low,Casual Elegant,40.7419972,-74.0015472,https://www.kayak.com/New-York-Restaurants-SushiNao.100038700.rd.ksp
Serra by Birreria,Flatiron District,Italian,$$,4.3,4.1,4.2,4.5,933,Moderate,Casual Dining,40.7420178,-73.9899056,https://www.kayak.com/New-York-Restaurants-Serra-by-Birreria.101014210.rd.ksp
TAO Downtown - New York,Chelsea,Fusion / Eclectic,$$,4.5,4.6,4.3,4.7,1078,Moderate,Casual Dining,40.7423232,-74.0041344,https://www.kayak.com/New-York-Restaurants-Tao-Downtown.100002621.rd.ksp
Le Zie 2000,Chelsea,Italian,$$,4.5,3.5,4.5,4.4,957,Moderate,Casual Dining,40.74253,-73.997081,https://www.kayak.com/New-York-Restaurants-Le-Zie-2000.100040420.rd.ksp
Socarrat Paella Bar - Chelsea,Chelsea,Spanish,$$,4.6,4.6,4.7,4.5,181,Moderate,Casual Elegant,40.7426481,-73.9995427,https://www.kayak.com/New-York-Restaurants-Socarrat-Paella-Bar-Chelsea.101013766.rd.ksp
Tarallucci e Vino - NoMad,Midtown,Italian,$$,4.3,4.2,4.3,4.3,47,Moderate,Casual Elegant,40.7434168,-73.9847247,https://www.kayak.com/New-York-Restaurants-Tarallucci-e-Vino-NoMad.100030410.rd.ksp
Salinas,Chelsea,Spanish,$$,4.5,4.4,4.4,4.6,7663,Moderate,Casual Elegant,40.7436469,-74.0031642,https://www.kayak.com/New-York-Restaurants-Salinas.100018277.rd.ksp
Leonelli Taberna,Midtown,Italian,$$,4.5,4.5,4.5,4.3,828,Moderate,Casual Dining,40.7439639,-73.9869839,https://www.kayak.com/New-York-Restaurants-Leonelli-Taberna.100051590.rd.ksp
Momofuku Nishi,Chelsea,Contemporary Italian,$$,4.5,4.4,4.4,4.2,6329,Moderate,Casual Elegant,40.7443392,-73.9987769,https://www.kayak.com/New-York-Restaurants-Momofuku-Nishi.100031444.rd.ksp
ilili,Midtown,Lebanese,$$,4.7,4.7,4.6,4.5,1048,Moderate,Casual Elegant,40.7443707,-73.98779,https://www.kayak.com/New-York-Restaurants-ilili.100007317.rd.ksp
Quality Eats Nomad,Midtown,Steakhouse,$$,4.6,4.5,4.5,4.5,1126,Moderate,Casual Dining,40.7445129,-73.9866131,https://www.kayak.com/New-York-Restaurants-Quality-Eats-Nomad.100052471.rd.ksp
The Flatiron Room - Nomad,Midtown,American,$$,4.5,4.2,4.4,4.8,312,Moderate,Casual Elegant,40.7445183,-73.9904632,https://www.kayak.com/New-York-Restaurants-The-Flatiron-Room.100000087.rd.ksp
PN wood fired pizza,Midtown,Italian,$$,4.5,4.4,4.3,4.2,1055,Moderate,Casual Dining,40.7447733,-73.9877491,https://www.kayak.com/New-York-Restaurants-PN-wood-fired-pizza.100051082.rd.ksp
Cardoncello diVino,Midtown,Italian,$$,4.7,4.7,4.7,4.6,1316,Moderate,Casual Dining,40.7451862,-73.9898467,https://www.kayak.com/New-York-Restaurants-Cardoncello-diVino.100052561.rd.ksp
Pastai,Chelsea,Sicilian,$$,4.4,4.4,4.2,4.2,776,Moderate,Casual Dining,40.745388,-74.0018661,https://www.kayak.com/New-York-Restaurants-Pastai.100040437.rd.ksp
Blossom- Chelsea,Chelsea,Vegetarian / Vegan,$$,4.8,4.7,4.8,4.6,65,Moderate,Casual Elegant,40.7454821,-74.0022829,https://www.kayak.com/New-York-Restaurants-Blossom-Chelsea.100024446.rd.ksp
Fonda Chelsea,Chelsea,Mexican,$$,4.5,4.6,4.4,4.4,174,Moderate,Casual Dining,40.7455495,-74.0023544,https://www.kayak.com/New-York-Restaurants-Fonda-Chelsea.100004757.rd.ksp
aRoqa,Chelsea,Indian,$$,4.5,4.5,4.6,4.4,113,Moderate,Casual Dining,40.7460795,-74.0013545,https://www.kayak.com/New-York-Restaurants-aRoqa.100038847.rd.ksp
Tía Pol,Chelsea,Tapas / Small Plates,$$,4.6,4.6,4.5,4.2,4477,Moderate,Casual Dining,40.7473,-74.0047278,https://www.kayak.com/New-York-Restaurants-Tia-Pol.100022547.rd.ksp
Txikito,Chelsea,Basque,$$,4.4,4.5,4.4,4,3010,Moderate,Casual Dining,40.7473898,-74.0004115,https://www.kayak.com/New-York-Restaurants-Txikito.101029300.rd.ksp
Hiroshi Sushi,Midtown,Japanese,$$,4.1,4,4.1,3.5,285,Low,Casual Dining,40.748367,-73.9758786,https://www.kayak.com/New-York-Restaurants-Hiroshi-Sushi.100025361.rd.ksp
Biricchino,Chelsea,Italian,$$,4.6,4.7,4.6,4.6,102,Moderate,Casual Elegant,40.7488549,-73.9954826,https://www.kayak.com/New-York-Restaurants-Biricchino.100032465.rd.ksp
Rossini's Restaurant,Midtown,Italian,$$,4.7,4.7,4.8,4.7,158,Moderate,Casual Elegant,40.7492299,-73.9789166,https://www.kayak.com/New-York-Restaurants-Rossini-s-Restaurant.100018281.rd.ksp
Wokuni,Midtown,Japanese,$$,4.7,4.7,4.6,4.6,362,Moderate,Casual Dining,40.7492448,-73.9773995,https://www.kayak.com/New-York-Restaurants-Wokuni.100041285.rd.ksp
Pennsylvania 6 - NYC,Chelsea,American,$$,4.2,4.1,4.1,4,2738,Moderate,Casual Elegant,40.7497169,-73.9929921,https://www.kayak.com/New-York-Restaurants-Pennsylvania-6-NYC.100022161.rd.ksp
Hakata Tonton,West Village,Japanese,$$,4.5,4.5,4.3,4,3872,Moderate,Casual Dining,40.7499701,-73.9857172,https://www.kayak.com/New-York-Restaurants-Hakata-Tonton.100030193.rd.ksp
Porteno Restaurant,Chelsea,Argentinean,$$,4.7,4.7,4.7,4.6,58,Moderate,Casual Elegant,40.7504599,-74.0024185,https://www.kayak.com/New-York-Restaurants-Porteno-Restaurant.101017813.rd.ksp
Gallow Green,Chelsea,Continental,$$,4.3,4.1,4.3,4.7,183,Moderate,Casual Dining,40.7507722,-74.0040792,https://www.kayak.com/New-York-Restaurants-Gallow-Green.100000254.rd.ksp
Nick & Stef’s Steakhouse - New York,Chelsea,Steakhouse,$$,4.6,4.6,4.7,4.4,248,Moderate,Casual Elegant,40.7510502,-73.9932346,https://www.kayak.com/New-York-Restaurants-Nick-Stefs-Steakhouse-New-York.101007494.rd.ksp
Death Ave.,Chelsea,American,$$,4.5,4.6,4.7,4.6,35,Moderate,Casual Elegant,40.7510637,-74.0019532,https://www.kayak.com/New-York-Restaurants-Death-Ave-.101006976.rd.ksp
Alcala,Midtown,Spanish,$$,4.2,4.4,4.1,4.1,38,Moderate,Casual Elegant,40.7512208,-73.9717524,https://www.kayak.com/New-York-Restaurants-Alcala.100037027.rd.ksp
The Australian,Midtown,Australian,$$,4.1,3.9,4.2,4,456,Moderate,Casual Dining,40.7512973,-73.9838618,https://www.kayak.com/New-York-Restaurants-The-Australian.100000742.rd.ksp
Grand Central Oyster Bar,Midtown,Seafood,$$,4.2,4.2,3.9,4.2,622,Moderate,Casual Dining,40.7524823,-73.9774311,https://www.kayak.com/New-York-Restaurants-Grand-Central-Oyster-Bar.100010391.rd.ksp
Magic Hour Rooftop Bar & Lounge,Midtown,American,$$,3.8,3.5,3.7,4,728,Moderate,Casual Dining,40.7524923,-73.9893157,https://www.kayak.com/New-York-Restaurants-Magic-Hour-Rooftop-Bar-Lounge.100052467.rd.ksp
Celon Bar and Lounge,Midtown,Bar / Lounge / Bottle Service,$$,4.4,4.4,4.4,4.5,27,Moderate,Casual Elegant,40.7528062,-73.9837798,https://www.kayak.com/New-York-Restaurants-Celon-Bar-and-Lounge.101008816.rd.ksp
Koi - New York,Midtown,Japanese,$$,4.4,4.4,4.3,4.2,23367,Moderate,Casual Elegant,40.7528962,-73.9837762,https://www.kayak.com/New-York-Restaurants-Koi-New-York.100014532.rd.ksp
Cipriani - Dolci,Midtown,Italian,$$,4.6,4.6,4.6,4.6,241,Moderate,Casual Elegant,40.7528997,-73.9776113,https://www.kayak.com/New-York-Restaurants-Cipriani-Dolci.100964836.rd.ksp
Aretsky's Patroon,Midtown,American,$$,4.9,4.9,4.9,4.8,176,Moderate,Casual Elegant,40.7534521,-73.9733396,https://www.kayak.com/New-York-Restaurants-Aretsky-s-Patroon.100004211.rd.ksp
Gogi 37,Midtown,Korean,$$,4.3,4.3,4.1,4.2,737,Moderate,Casual Dining,40.7536266,-73.9913213,https://www.kayak.com/New-York-Restaurants-Gogi-37.100036059.rd.ksp
L'Adresse - Bryant Park,Midtown,Contemporary American,$$,4.6,4.5,4.5,4.5,477,Moderate,Casual Elegant,40.7539141,-73.9853115,https://www.kayak.com/New-York-Restaurants-L-adresse.100035089.rd.ksp
Ammos Estiatorio,Midtown,Seafood,$$,4.3,4.1,4.2,4.1,177,Moderate,Casual Elegant,40.7542362,-73.977239,https://www.kayak.com/New-York-Restaurants-Ammos-Estiatorio.100017386.rd.ksp
STK - NYC - Midtown,Midtown,Steakhouse,$$,4,4.1,4.1,4.2,1197,Moderate,Casual Elegant,40.7548374,-73.9827653,https://www.kayak.com/New-York-Restaurants-STK-NYC-Midtown.100018601.rd.ksp
Valbella Midtown,Midtown,Italian,$$,4.5,4.5,4.6,4.4,2937,Moderate,Casual Elegant,40.7549683,-73.9852746,https://www.kayak.com/New-York-Restaurants-Valbella-Midtown.100019432.rd.ksp
Casa Nonna - Midtown,Hell's Kitchen,Italian,$$,4.4,4.3,4.3,4.3,8513,Moderate,Casual Dining,40.7549995,-73.9927853,https://www.kayak.com/New-York-Restaurants-Casa-Nonna-Midtown.100017974.rd.ksp
Sen Sakana,Midtown,Sushi,$$,4.5,4.5,4.4,4.4,3596,Moderate,Casual Elegant,40.7550329,-73.981663,https://www.kayak.com/New-York-Restaurants-Sen-Sakana.100039226.rd.ksp
Wollensky’s Grill,Midtown,American,$$,4.6,4.6,4.5,4.5,236,Moderate,Casual Dining,40.755156,-73.9707177,https://www.kayak.com/New-York-Restaurants-Wollenskys-Grill.100977836.rd.ksp
Shochu and Tapas AYA,Midtown,Tapas / Small Plates,$$,4.3,4.2,4.2,4,87,Moderate,Casual Dining,40.7552226,-73.9690411,https://www.kayak.com/New-York-Restaurants-Shochu-and-Tapas-AYA.100042667.rd.ksp
Socarrat Paella Bar - Midtown East,Midtown,Spanish,$$,4.6,4.5,4.7,4.5,155,Moderate,Casual Elegant,40.75529,-73.96846,https://www.kayak.com/New-York-Restaurants-Socarrat-Paella-Bar-Midtown-East.100039119.rd.ksp
Charlie Palmer at The Knick,Midtown,Contemporary American,$$,4.1,4,4,4.2,1975,Low,Casual Elegant,40.75536,-73.9860562,https://www.kayak.com/New-York-Restaurants-Charlie-Palmer-at-The-Knick.100007136.rd.ksp
Boqueria West 40th Street,Midtown,Tapas / Small Plates,$$,4.5,4.5,4.4,4.4,86,Moderate,Casual Dining,40.7554316,-73.9900633,https://www.kayak.com/New-York-Restaurants-Boqueria-West-40th-Street.100050416.rd.ksp
Pampano New York,Midtown,Mexican,$$,4.5,4.4,4.4,4.3,438,Moderate,Casual Elegant,40.7555556,-73.9705556,https://www.kayak.com/New-York-Restaurants-Pampano-New-York.100011346.rd.ksp
Forty Four,Midtown,American,$$,4.2,4.3,4,4,40,Moderate,Casual Elegant,40.7555936,-73.982172,https://www.kayak.com/New-York-Restaurants-Forty-Four.100009246.rd.ksp
Toscana 49,Midtown,Italian,$$,4.7,4.7,4.7,4.6,195,Moderate,Casual Dining,40.7557485,-73.9721554,https://www.kayak.com/New-York-Restaurants-Toscana-49.101025579.rd.ksp
Beer Authority,Hell's Kitchen,Gastro Pub,$$,4.3,4.3,4.3,4.3,24,Moderate,Casual Dining,40.7559369,-73.9911531,https://www.kayak.com/New-York-Restaurants-Beer-Authority.100023265.rd.ksp
BXL Cafe,Midtown,Belgian,$$,4.5,4.5,4.5,4.2,112,Moderate,Casual Dining,40.7561736,-73.9846328,https://www.kayak.com/New-York-Restaurants-BXL-Cafe.100004098.rd.ksp
iL Punto,Hell's Kitchen,Italian,$$,4.8,4.8,4.8,4.6,101,Moderate,Casual Elegant,40.756175,-73.9946239,https://www.kayak.com/New-York-Restaurants-iL-Punto.100014540.rd.ksp
212 Steakhouse,Midtown,Steakhouse,$$,4.4,4.4,4.6,4.4,106,Moderate,Fine Dining,40.7563374,-73.9664884,https://www.kayak.com/New-York-Restaurants-212-Steakhouse.100006574.rd.ksp
Tony's Di Napoli - Midtown,Midtown,Italian,$$,4.7,4.7,4.8,4.6,1603,Moderate,Casual Dining,40.7564842,-73.9853808,https://www.kayak.com/New-York-Restaurants-Tony-s-Di-Napoli-Midtown.100013943.rd.ksp
Emporium Brasil Restaurant & Bar,Midtown,Brazilian,$$,4.8,4.8,4.9,4.6,37,Moderate,Casual Dining,40.7565176,-73.979897,https://www.kayak.com/New-York-Restaurants-Emporium-Brasil-Restaurant-Bar.100042921.rd.ksp
The National Bar & Dining Rooms,Midtown,Contemporary American,$$,4.1,4,3.7,3.9,12914,Moderate,Casual Dining,40.7566054,-73.972001,https://www.kayak.com/New-York-Restaurants-The-National-Bar-Dining-Rooms.100016797.rd.ksp
Osteria al Doge,Midtown,Italian,$$,4.6,4.6,4.7,4.5,560,Moderate,Casual Dining,40.7566174,-73.9849106,https://www.kayak.com/New-York-Restaurants-Osteria-al-Doge.100015428.rd.ksp
Cafe Un Deux Trois,Midtown,French,$$,4.1,4,4.1,4,13214,Moderate,Casual Dining,40.7566505,-73.9841404,https://www.kayak.com/New-York-Restaurants-Cafe-Un-Deux-Trois.100021252.rd.ksp
"RA Sushi Bar Restaurant – Times Square, NY",Midtown,Japanese,$$,4.3,4.3,4.2,4.1,283,Moderate,Casual Elegant,40.757251,-73.9874539,https://www.kayak.com/New-York-Restaurants-RA-Sushi-Bar-Restaurant-Times-Square-NY.100983164.rd.ksp
Hudson Malone,Midtown,Gastro Pub,$$,4.5,4.3,4.5,4.3,1014,Moderate,Casual Elegant,40.7572639,-73.9686379,https://www.kayak.com/New-York-Restaurants-Hudson-Malone.100031531.rd.ksp
Sardi's,Midtown,Continental,$$,4.5,4.3,4.6,4.6,494,Moderate,Casual Elegant,40.7578088,-73.9876432,https://www.kayak.com/New-York-Restaurants-Sardi-s.100980148.rd.ksp
The Stinger Cocktail Bar and Kitchen,Hell's Kitchen,American,$$,4.2,4,4,4,34,Moderate,Casual Dining,40.758802,-73.9896913,https://www.kayak.com/New-York-Restaurants-The-Stinger-Cocktail-Bar-and-Kitchen.101011231.rd.ksp
Fresco by Scotto,Midtown,Italian,$$,4.5,4.5,4.5,4.3,7922,Moderate,Casual Elegant,40.7588164,-73.9745136,https://www.kayak.com/New-York-Restaurants-Fresco-by-Scotto.100001309.rd.ksp
Bistro Vendome - NYC,Midtown,French,$$,4.7,4.8,4.6,4.5,194,Moderate,Casual Elegant,40.7588838,-73.961895,https://www.kayak.com/New-York-Restaurants-Bistro-Vendome-NYC.100019918.rd.ksp
SIDECAR at P.J. Clarke's,Midtown,American,$$,4.4,4.2,4.3,4.3,4220,Moderate,Casual Elegant,40.7589726,-73.9681925,https://www.kayak.com/New-York-Restaurants-SIDECAR-at-P-J-Clarke-s.100014260.rd.ksp
Rosa Mexicano - First Avenue,Midtown,Mexican,$$,4.3,4.3,4.1,4.1,726,Moderate,Casual Elegant,40.7589866,-73.9627516,https://www.kayak.com/New-York-Restaurants-Rosa-Mexicano-First-Avenue.100010387.rd.ksp
Chimichurri Grill - Theater District,Hell's Kitchen,Steakhouse,$$,4.5,4.6,4.5,4.3,1119,Low,Casual Elegant,40.759011,-73.9844722,https://www.kayak.com/New-York-Restaurants-Chimichurri-Grill-Theater-District.100032620.rd.ksp
Bar SixtyFive at Rainbow Room,Midtown,Contemporary American,$$,4.5,4.2,4.2,4.6,7971,Moderate,Casual Elegant,40.75908,-73.979444,https://www.kayak.com/New-York-Restaurants-Bar-SixtyFive-at-Rainbow-Room.100050795.rd.ksp
Bobby Van's Steakhouse - 54th Street,Midtown,Steakhouse,$$,4.8,4.8,4.8,4.6,83,Moderate,Casual Elegant,40.7593632,-73.9709258,https://www.kayak.com/New-York-Restaurants-Bobby-Van-s-Steakhouse-54th-Street.100018989.rd.ksp
Glass House Tavern,Midtown,Contemporary American,$$,4.7,4.6,4.7,4.5,429,Moderate,Casual Elegant,40.7599261,-73.9866455,https://www.kayak.com/New-York-Restaurants-Glass-House-Tavern.100986613.rd.ksp
Frankie & Johnnie's Steakhouse - Manhattan,Midtown,Steak,$$,4.7,4.7,4.7,4.6,125,Moderate,Casual Dining,40.759969,-73.988935,https://www.kayak.com/New-York-Restaurants-Frankie-Johnnie-s-Steakhouse-Manhattan.100980589.rd.ksp
Frankie and Johnnie's Steakhouse - 46th Street,Hell's Kitchen,Steakhouse,$$,4.5,4.5,4.6,4.5,214,Moderate,Casual Elegant,40.759969,-73.988935,https://www.kayak.com/New-York-Restaurants-Frankie-and-Johnnie-s-Steakhouse-46th-Street.100990482.rd.ksp
Orso - NYC,Hell's Kitchen,Italian,$$,4.8,4.7,4.8,4.7,259,Moderate,Casual Elegant,40.7600118,-73.9890099,https://www.kayak.com/New-York-Restaurants-Orso-NYC.100006269.rd.ksp
Turkish Cuisine,Hell's Kitchen,Turkish,$$,4.5,4.5,4.5,4.3,47,Moderate,Casual Elegant,40.7600863,-73.9916414,https://www.kayak.com/New-York-Restaurants-Turkish-Cuisine.100037214.rd.ksp
Joe Allen,Hell's Kitchen,American,$$,4.7,4.5,4.7,4.7,468,Moderate,Casual Dining,40.7601328,-73.9890604,https://www.kayak.com/New-York-Restaurants-Joe-Allen.101010617.rd.ksp
Bill's Townhouse,Midtown,American,$$,4.6,4.5,4.5,4.6,3321,Moderate,Casual Elegant,40.7601427,-73.9730667,https://www.kayak.com/New-York-Restaurants-Bill-s-Townhouse.100022257.rd.ksp
Club A Steakhouse,Midtown,Steakhouse,$$,4.9,4.8,4.9,4.9,543,Moderate,Fine Dining,40.7601469,-73.9655086,https://www.kayak.com/New-York-Restaurants-Club-A-Steakhouse.101010387.rd.ksp
Cellini,Midtown,Italian,$$,4.7,4,4.6,4.5,142,Moderate,Casual Elegant,40.7601524,-73.9726722,https://www.kayak.com/New-York-Restaurants-Cellini.100861174.rd.ksp
Papillon Bistro and Bar,Midtown,Bistro,$$,4.3,4.2,4.3,4.4,62,Moderate,Casual Dining,40.760342,-73.974326,https://www.kayak.com/New-York-Restaurants-Papillon-Bistro-and-Bar.100970288.rd.ksp
Becco,Hell's Kitchen,Italian,$$,4.6,4.6,4.6,4.4,1908,Moderate,Casual Dining,40.7605173,-73.9900277,https://www.kayak.com/New-York-Restaurants-Becco.100007324.rd.ksp
West Side Steakhouse,Hell's Kitchen,Steakhouse,$$,4.5,4.5,4.5,4.3,123,Moderate,Casual Dining,40.7606009,-73.9949869,https://www.kayak.com/New-York-Restaurants-West-Side-Steakhouse.100017485.rd.ksp
Swing 46,Hell's Kitchen,American,$$,4.3,3.9,4.1,4.4,463,Moderate,Casual Elegant,40.7606967,-73.9896865,https://www.kayak.com/New-York-Restaurants-Swing-46.100035024.rd.ksp
Dutch Fred's,Hell's Kitchen,American,$$,4.5,4.4,4.2,4.4,4449,Moderate,Casual Dining,40.7608159,-73.9878465,https://www.kayak.com/New-York-Restaurants-Dutch-Fred-s.100031565.rd.ksp
Sushi Seki Times Square,Hell's Kitchen,Sushi,$$,4.7,4.8,4.8,4.3,127,Moderate,Casual Dining,40.7608397,-73.9901842,https://www.kayak.com/New-York-Restaurants-Sushi-Seki-Times-Square.100027454.rd.ksp
Le Colonial NYC,Midtown,Vietnamese,$$,4.2,4.2,4.1,4.2,7662,Moderate,Casual Elegant,40.7608519,-73.9684039,https://www.kayak.com/New-York-Restaurants-Le-Colonial-NYC.100015842.rd.ksp
Grand Salon & Bar at Baccarat Hotel New York,Midtown,French,$$,4.6,4.4,4.4,4.8,671,Low,Casual Dining,40.7608702,-73.9774306,https://www.kayak.com/New-York-Restaurants-Grand-Salon-Bar-at-Baccarat-Hotel-New-York.100024047.rd.ksp
La Masseria,Midtown,Italian,$$,4.8,4.8,4.8,4.7,747,Moderate,Casual Elegant,40.7608991,-73.986314,https://www.kayak.com/New-York-Restaurants-La-Masseria.100010913.rd.ksp
DaMarino NYC,Midtown,Italian,$$,4.4,3.9,4.4,4.2,61,Moderate,Casual Dining,40.760908,-73.985335,https://www.kayak.com/New-York-Restaurants-DaMarino-NYC.100035762.rd.ksp
Meme Mediterranean on 10th,Hell's Kitchen,Mediterranean,$$,4.6,4.6,4.5,4.3,4622,Moderate,Casual Dining,40.7609328,-73.9948279,https://www.kayak.com/New-York-Restaurants-Meme-Mediterranean-on-10th.100028991.rd.ksp
The Marshal,Hell's Kitchen,Farm-to-table,$$,4.5,4.5,4.5,4.1,2279,Moderate,Casual Dining,40.7612529,-73.994034,https://www.kayak.com/New-York-Restaurants-The-Marshal.100049355.rd.ksp
Astor Court,Midtown,International,$$,4.6,4.6,4.5,4.6,125,Moderate,Casual Elegant,40.761318,-73.9744256,https://www.kayak.com/New-York-Restaurants-Astor-Court.100968884.rd.ksp
Nare Sushi,Midtown,Japanese,$$,4.3,4.4,4.2,3.7,38,Moderate,Casual Elegant,40.7615171,-73.969961,https://www.kayak.com/New-York-Restaurants-Nare-Sushi.100026442.rd.ksp
The Polo Bar,Midtown,American,$$,4.8,4.7,4.8,4.9,3848,Moderate,Elegant Dining,40.7615247,-73.9743066,https://www.kayak.com/New-York-Restaurants-The-Polo-Bar.100051697.rd.ksp
Clement,Midtown,American,$$,4.7,4.5,4.8,4.8,90,Moderate,Casual Elegant,40.7616053,-73.99154329,https://www.kayak.com/New-York-Restaurants-Clement.100002696.rd.ksp
Amarone Scarlatto,Hell's Kitchen,Italian,$$,4.6,4.6,4.6,4.5,79,Moderate,Casual Dining,40.7617024,-73.9900181,https://www.kayak.com/New-York-Restaurants-Amarone.100004595.rd.ksp
North River Lobster Company,Hell's Kitchen,Seafood,$$,4.3,4,3.9,4.4,92,Moderate,Casual Dining,40.7617789,-74.0027011,https://www.kayak.com/New-York-Restaurants-North-River-Lobster-Company.101003990.rd.ksp
Mozzarella & Vino,Midtown,Italian,$$,4.4,4.4,4.4,4.3,3419,Moderate,Casual Dining,40.7619597,-73.9772624,https://www.kayak.com/New-York-Restaurants-Mozzarella-Vino.100004373.rd.ksp
Anassa Taverna,Upper East Side,Greek,$$,4.4,4.4,4.2,4.2,7857,Moderate,Casual Dining,40.7619879,-73.9659672,https://www.kayak.com/New-York-Restaurants-Anassa-Taverna.100000971.rd.ksp
Il Corso (New York City),Midtown,Italian,$$,4.7,4.7,4.8,4.5,318,Moderate,Casual Elegant,40.762485,-73.9771512,https://www.kayak.com/New-York-Restaurants-Il-Corso-New-York-City-.101015384.rd.ksp
TAO Uptown,Midtown,Pan-Asian,$$,4.4,4.5,4.3,4.5,1191,Moderate,Casual Elegant,40.7626593,-73.9714411,https://www.kayak.com/New-York-Restaurants-TAO-Uptown.100861290.rd.ksp
Saar Indian Bistro,Midtown,Indian,$$,4.5,4.6,4.6,4.2,108,Moderate,Casual Dining,40.7626911,-73.9848128,https://www.kayak.com/New-York-Restaurants-Saar-Indian-Bistro.100051327.rd.ksp
BG - Bergdorf Goodman,Midtown,Contemporary American,$$,4.7,4.6,4.7,4.7,663,Moderate,Casual Elegant,40.7636243,-73.9739928,https://www.kayak.com/New-York-Restaurants-BG-Bergdorf-Goodman.100016906.rd.ksp
Mont Blanc 52,Hell's Kitchen,Swiss,$$,4.6,4.6,4.6,4.3,1110,Low,Casual Dining,40.7639811,-73.9867763,https://www.kayak.com/New-York-Restaurants-Mont-Blanc-52.100039297.rd.ksp
Danji,Hell's Kitchen,Korean,$$,4.7,4.7,4.7,4.4,118,Moderate,Casual Dining,40.7640857,-73.9867718,https://www.kayak.com/New-York-Restaurants-Danji.100023767.rd.ksp
K Rico South American Steakhouse,Hell's Kitchen,Steakhouse,$$,4.8,4.7,4.9,4.7,102,Moderate,Casual Elegant,40.7643559,-73.9880272,https://www.kayak.com/New-York-Restaurants-K-Rico-South-American-Steakhouse.101009127.rd.ksp
54 Below,Midtown,American,$$,4.2,4.1,4.3,4.4,379,Moderate,Casual Elegant,40.764451,-73.983671,https://www.kayak.com/New-York-Restaurants-54-Below.101013799.rd.ksp
Butter Midtown,Midtown,Contemporary American,$$,4.7,4.7,4.6,4.6,328,Moderate,Casual Elegant,40.7646757,-73.9786652,https://www.kayak.com/New-York-Restaurants-Butter-Midtown.100988426.rd.ksp
