Name,Address,City,Zip,State,Longitude,Latitude,Review_Count,Rating,Price,URL,ID,Phone,Street,Name_UPPER
Thursday Kitchen,424 E 9th St,New York,10009,NY,-73.98373,40.72761,1772,4.5,$$,https://www.yelp.com/biz/thursday-kitchen-new-york?adjust_creative=4OloIt1kPZ2nt6Pu4NdkDA&utm_campaign=yelp_api_v3&utm_medium=api_v3_business_search&utm_source=4OloIt1kPZ2nt6Pu4NdkDA,fVbUVAiLiGgLA_nxBFxyww,nan,E 9TH ST,THURSDAY KITCHEN
Time Out Market New York,55 Water St,Brooklyn,11201,NY,-73.99214637055226,40.70342863348067,516,4.0,$$,https://www.yelp.com/biz/time-out-market-new-york-brooklyn?adjust_creative=4OloIt1kPZ2nt6Pu4NdkDA&utm_campaign=yelp_api_v3&utm_medium=api_v3_business_search&utm_source=4OloIt1kPZ2nt6Pu4NdkDA,MGd6HFEq1ALD58XWNviSXw,9178104855,WATER ST,TIME OUT MARKET NEW YORK
ARIARI,119 1st Ave,New York,10003,NY,-73.9858313,40.727283504010266,197,4.5,,https://www.yelp.com/biz/ariari-new-york?adjust_creative=4OloIt1kPZ2nt6Pu4NdkDA&utm_campaign=yelp_api_v3&utm_medium=api_v3_business_search&utm_source=4OloIt1kPZ2nt6Pu4NdkDA,nMyot99PkX5iYCdxHoRJqQ,6464227466,1ST AVE,ARIARI
Salma,351 E 12th St,New York,10003,NY,-73.9837222575225,40.730369942268375,167,4.5,$$,https://www.yelp.com/biz/salma-new-york?adjust_creative=4OloIt1kPZ2nt6Pu4NdkDA&utm_campaign=yelp_api_v3&utm_medium=api_v3_business_search&utm_source=4OloIt1kPZ2nt6Pu4NdkDA,IA3EQ0Ilx0yI7dNYnq-YGQ,9172614900,E 12TH ST,SALMA
Kalye,251 Broome St,New York,10002,NY,-73.98999,40.7179,96,4.5,$$,https://www.yelp.com/biz/kalye-new-york?adjust_creative=4OloIt1kPZ2nt6Pu4NdkDA&utm_campaign=yelp_api_v3&utm_medium=api_v3_business_search&utm_source=4OloIt1kPZ2nt6Pu4NdkDA,hLXe3RVRK39VUSPdvBjFEA,6464227267,BROOME ST,KALYE
Raku,342 E 6th St,New York,10003,NY,-73.9866526052356,40.7264988089246,1562,4.5,$$,https://www.yelp.com/biz/raku-new-york-7?adjust_creative=4OloIt1kPZ2nt6Pu4NdkDA&utm_campaign=yelp_api_v3&utm_medium=api_v3_business_search&utm_source=4OloIt1kPZ2nt6Pu4NdkDA,FlZ1zdVEKWv7dwqm8Uw8-w,2122281324,E 6TH ST,RAKU
Fish Cheeks,55 Bond St,New York,10012,NY,-73.9927,40.7258,1384,4.5,$$,https://www.yelp.com/biz/fish-cheeks-new-york?adjust_creative=4OloIt1kPZ2nt6Pu4NdkDA&utm_campaign=yelp_api_v3&utm_medium=api_v3_business_search&utm_source=4OloIt1kPZ2nt6Pu4NdkDA,WJS06XxRdc6DD1s4LWE9HA,2126772223,BOND ST,FISH CHEEKS
Em Vietnamese Bistro,57 Front St,Brooklyn,11201,NY,-73.99118578021728,40.702670064808366,161,4.5,$$,https://www.yelp.com/biz/em-vietnamese-bistro-brooklyn?adjust_creative=4OloIt1kPZ2nt6Pu4NdkDA&utm_campaign=yelp_api_v3&utm_medium=api_v3_business_search&utm_source=4OloIt1kPZ2nt6Pu4NdkDA,9I8mZXCkGZBmFh5fYOYorw,7188757888,FRONT ST,EM VIETNAMESE BISTRO
Raku,48 Macdougal St,New York,10012,NY,-74.00252,40.72728,904,4.5,$$,https://www.yelp.com/biz/raku-new-york-6?adjust_creative=4OloIt1kPZ2nt6Pu4NdkDA&utm_campaign=yelp_api_v3&utm_medium=api_v3_business_search&utm_source=4OloIt1kPZ2nt6Pu4NdkDA,qEe7nIhPfEL6L0-VYhWRrA,2129894797,MACDOUGAL ST,RAKU
Soothr,204 E 13th St,New York,10003,NY,-73.987363,40.732259,1110,4.5,$$,https://www.yelp.com/biz/soothr-new-york-2?adjust_creative=4OloIt1kPZ2nt6Pu4NdkDA&utm_campaign=yelp_api_v3&utm_medium=api_v3_business_search&utm_source=4OloIt1kPZ2nt6Pu4NdkDA,-XYp6w50XbZfS90YddS5ew,2128449789,E 13TH ST,SOOTHR
AlMar,111 Front St,Brooklyn,11201,NY,-73.989177,40.702662,497,4.0,$$,https://www.yelp.com/biz/almar-brooklyn-2?adjust_creative=4OloIt1kPZ2nt6Pu4NdkDA&utm_campaign=yelp_api_v3&utm_medium=api_v3_business_search&utm_source=4OloIt1kPZ2nt6Pu4NdkDA,nHMDOIX32dGbfpuNUwsLNQ,7188555288,FRONT ST,ALMAR
Celestine,1 John St,Brooklyn,11201,NY,-73.987975,40.704676,292,4.0,$$$,https://www.yelp.com/biz/celestine-brooklyn?adjust_creative=4OloIt1kPZ2nt6Pu4NdkDA&utm_campaign=yelp_api_v3&utm_medium=api_v3_business_search&utm_source=4OloIt1kPZ2nt6Pu4NdkDA,4aF0F8w7yXX9o5_QFky_ig,7185225356,JOHN ST,CELESTINE
Malibu Farm New York,89 South St,New York,10038,NY,-74.00188,40.705644,369,4.0,$$,https://www.yelp.com/biz/malibu-farm-new-york-new-york-2?adjust_creative=4OloIt1kPZ2nt6Pu4NdkDA&utm_campaign=yelp_api_v3&utm_medium=api_v3_business_search&utm_source=4OloIt1kPZ2nt6Pu4NdkDA,SWK0AQ5KTDDCt8AtOhhasg,2122653030,SOUTH ST,MALIBU FARM NEW YORK
Jack's Wife Freda,226 Lafayette St,New York,10012,NY,-73.9975402,40.7221323,2417,4.0,$$,https://www.yelp.com/biz/jacks-wife-freda-new-york?adjust_creative=4OloIt1kPZ2nt6Pu4NdkDA&utm_campaign=yelp_api_v3&utm_medium=api_v3_business_search&utm_source=4OloIt1kPZ2nt6Pu4NdkDA,Me4TxTbPPQZQopW1wOGx5g,2125108550,LAFAYETTE ST,JACK'S WIFE FREDA
8282,84 Stanton St,New York,10002,NY,-73.98875,40.72161,174,4.5,,https://www.yelp.com/biz/8282-new-york-2?adjust_creative=4OloIt1kPZ2nt6Pu4NdkDA&utm_campaign=yelp_api_v3&utm_medium=api_v3_business_search&utm_source=4OloIt1kPZ2nt6Pu4NdkDA,fNKYBpQJivICm0ORb3nb_Q,9298370360,STANTON ST,8282
Fishmarket Restaurant,111 South St,New York,10038,NY,-74.00192,40.70717,635,4.5,$$,https://www.yelp.com/biz/fishmarket-restaurant-new-york?adjust_creative=4OloIt1kPZ2nt6Pu4NdkDA&utm_campaign=yelp_api_v3&utm_medium=api_v3_business_search&utm_source=4OloIt1kPZ2nt6Pu4NdkDA,LpVbI-E9C-CSp7WhU5h2Iw,9173638101,SOUTH ST,FISHMARKET RESTAURANT
Mabu Hong Kong Cafe,18 Doyers St,New York,10013,NY,-73.99800438433886,40.71458505306615,99,3.5,,https://www.yelp.com/biz/mabu-hong-kong-cafe-new-york?adjust_creative=4OloIt1kPZ2nt6Pu4NdkDA&utm_campaign=yelp_api_v3&utm_medium=api_v3_business_search&utm_source=4OloIt1kPZ2nt6Pu4NdkDA,D_f5cnBPDUueO-CCYHtwPw,nan,DOYERS ST,MABU HONG KONG CAFE
The Frenchman's Dough,96 South St,New York,10038,NY,-74.00233246386051,40.706116183284095,36,4.5,,https://www.yelp.com/biz/the-frenchmans-dough-new-york?adjust_creative=4OloIt1kPZ2nt6Pu4NdkDA&utm_campaign=yelp_api_v3&utm_medium=api_v3_business_search&utm_source=4OloIt1kPZ2nt6Pu4NdkDA,Qi7pmy2BuR5Oz2ouXa2u4A,6468686000,SOUTH ST,THE FRENCHMAN'S DOUGH
RH Rooftop Restaurant New York,9 9th Ave,New York,10014,NY,-74.00639,40.73985,854,4.0,$$$,https://www.yelp.com/biz/rh-rooftop-restaurant-new-york-new-york-2?adjust_creative=4OloIt1kPZ2nt6Pu4NdkDA&utm_campaign=yelp_api_v3&utm_medium=api_v3_business_search&utm_source=4OloIt1kPZ2nt6Pu4NdkDA,8SehQovJOuQDLbtzLLYLyw,2122172210,9TH AVE,RH ROOFTOP RESTAURANT NEW YORK
The Leroy House,430 Hudson St,New York,10014,NY,-74.00661,40.73063,184,4.5,$$$,https://www.yelp.com/biz/the-leroy-house-new-york-5?adjust_creative=4OloIt1kPZ2nt6Pu4NdkDA&utm_campaign=yelp_api_v3&utm_medium=api_v3_business_search&utm_source=4OloIt1kPZ2nt6Pu4NdkDA,AA9wpuJRhkSHUePAiv3otA,6465900640,HUDSON ST,THE LEROY HOUSE
Betty,193 Henry St,New York,10002,NY,-73.98785,40.71367,35,5.0,$$,https://www.yelp.com/biz/betty-new-york?adjust_creative=4OloIt1kPZ2nt6Pu4NdkDA&utm_campaign=yelp_api_v3&utm_medium=api_v3_business_search&utm_source=4OloIt1kPZ2nt6Pu4NdkDA,c8wkoGg9UbF55k3Z74X0Qw,6465565081,HENRY ST,BETTY
Bar Lula,132 1st Ave,New York,10009,NY,-73.98521,40.72743,51,4.5,,https://www.yelp.com/biz/bar-lula-new-york?adjust_creative=4OloIt1kPZ2nt6Pu4NdkDA&utm_campaign=yelp_api_v3&utm_medium=api_v3_business_search&utm_source=4OloIt1kPZ2nt6Pu4NdkDA,y2dSu-qwp1BmLfQRn_c-1Q,2127277900,1ST AVE,BAR LULA
Momofuku Ssam Bar,89 South St,New York,10038,NY,-74.0016428,40.705476024827576,123,4.0,$$$,https://www.yelp.com/biz/momofuku-ssam-bar-new-york-6?adjust_creative=4OloIt1kPZ2nt6Pu4NdkDA&utm_campaign=yelp_api_v3&utm_medium=api_v3_business_search&utm_source=4OloIt1kPZ2nt6Pu4NdkDA,D0EV-xXaUUi35raZ_hWg-w,2125000831,SOUTH ST,MOMOFUKU SSAM BAR
Sobak,51B Canal St,New York,10002,NY,-73.99158544320115,40.71497047687499,18,5.0,$$,https://www.yelp.com/biz/sobak-new-york-2?adjust_creative=4OloIt1kPZ2nt6Pu4NdkDA&utm_campaign=yelp_api_v3&utm_medium=api_v3_business_search&utm_source=4OloIt1kPZ2nt6Pu4NdkDA,WUc3CA6S8OjH3kiqv3eFOA,nan,CANAL ST,SOBAK
Izakaya Fuku,71-28 Roosevelt Ave,Jackson Heights,11372,NY,-73.89383,40.74635,290,4.5,$$,https://www.yelp.com/biz/izakaya-fuku-jackson-heights?adjust_creative=4OloIt1kPZ2nt6Pu4NdkDA&utm_campaign=yelp_api_v3&utm_medium=api_v3_business_search&utm_source=4OloIt1kPZ2nt6Pu4NdkDA,AudBWxeAr3zHr1ITrTcVpg,7182551120,ROOSEVELT AVE,IZAKAYA FUKU
Lucky Rabbit Noodles,140 Plymouth St,Brooklyn,11201,NY,-73.98809,40.70375,37,4.5,$$,https://www.yelp.com/biz/lucky-rabbit-noodles-brooklyn?adjust_creative=4OloIt1kPZ2nt6Pu4NdkDA&utm_campaign=yelp_api_v3&utm_medium=api_v3_business_search&utm_source=4OloIt1kPZ2nt6Pu4NdkDA,7bpZZUpEclhn29wWVqFsKA,3479160098,PLYMOUTH ST,LUCKY RABBIT NOODLES
Kimura,31 St Marks Pl,New York,10003,NY,-73.9882174,40.72904325062745,375,4.5,$$$,https://www.yelp.com/biz/kimura-new-york?adjust_creative=4OloIt1kPZ2nt6Pu4NdkDA&utm_campaign=yelp_api_v3&utm_medium=api_v3_business_search&utm_source=4OloIt1kPZ2nt6Pu4NdkDA,eQ4QUGvuHGBzsOrphsVc6A,9179051864,ST MARKS PL,KIMURA
La Contenta,102 Norfolk St,New York,10002,NY,-73.98691,40.71873,910,4.5,$$,https://www.yelp.com/biz/la-contenta-new-york?adjust_creative=4OloIt1kPZ2nt6Pu4NdkDA&utm_campaign=yelp_api_v3&utm_medium=api_v3_business_search&utm_source=4OloIt1kPZ2nt6Pu4NdkDA,6Ct7OeTRn4caY9g0swFBsw,2124324180,NORFOLK ST,LA CONTENTA
Shu Jiao Fu Zhou,295 Grand St,New York,10002,NY,-73.99210041198651,40.7174109,1301,4.5,$,https://www.yelp.com/biz/shu-jiao-fu-zhou-new-york-2?adjust_creative=4OloIt1kPZ2nt6Pu4NdkDA&utm_campaign=yelp_api_v3&utm_medium=api_v3_business_search&utm_source=4OloIt1kPZ2nt6Pu4NdkDA,lynQoI3w_pzYfHGeuUU-Qg,2126252532,GRAND ST,SHU JIAO FU ZHOU
Mokyo,109 St Marks Pl,New York,10009,NY,-73.98395721296154,40.72714401116084,341,4.5,,https://www.yelp.com/biz/mokyo-new-york-2?adjust_creative=4OloIt1kPZ2nt6Pu4NdkDA&utm_campaign=yelp_api_v3&utm_medium=api_v3_business_search&utm_source=4OloIt1kPZ2nt6Pu4NdkDA,e5wK3I_THzF4Ce_OgoSCQw,nan,ST MARKS PL,MOKYO
Paesano of Mulberry Street,136 Mulberry St,New York,10013,NY,-73.997447,40.718554,1413,4.0,$$,https://www.yelp.com/biz/paesano-of-mulberry-street-new-york?adjust_creative=4OloIt1kPZ2nt6Pu4NdkDA&utm_campaign=yelp_api_v3&utm_medium=api_v3_business_search&utm_source=4OloIt1kPZ2nt6Pu4NdkDA,OCTiJwvjoK81WoDwsTkFvA,2129651188,MULBERRY ST,PAESANO OF MULBERRY STREET
Piccola Cucina Osteria,196 Spring St,New York,10012,NY,-74.00322,40.72506,794,4.5,$$,https://www.yelp.com/biz/piccola-cucina-osteria-new-york-2?adjust_creative=4OloIt1kPZ2nt6Pu4NdkDA&utm_campaign=yelp_api_v3&utm_medium=api_v3_business_search&utm_source=4OloIt1kPZ2nt6Pu4NdkDA,qBGKigOGn_flCx1apxPzlA,6464787488,SPRING ST,PICCOLA CUCINA OSTERIA
Din Soup Dumplings,162 Montague St,Brooklyn,11201,NY,-73.99277,40.69425,200,4.5,$$,https://www.yelp.com/biz/din-soup-dumplings-brooklyn?adjust_creative=4OloIt1kPZ2nt6Pu4NdkDA&utm_campaign=yelp_api_v3&utm_medium=api_v3_business_search&utm_source=4OloIt1kPZ2nt6Pu4NdkDA,Vbmv3T7hr_owVic5BQXs5w,7185503888,MONTAGUE ST,DIN SOUP DUMPLINGS
Seamore’s Dumbo,66 Water St,Brooklyn,11201,NY,-73.991307,40.703086,203,4.0,$$,https://www.yelp.com/biz/seamore-s-dumbo-brooklyn-3?adjust_creative=4OloIt1kPZ2nt6Pu4NdkDA&utm_campaign=yelp_api_v3&utm_medium=api_v3_business_search&utm_source=4OloIt1kPZ2nt6Pu4NdkDA,CqtT8rPaSmrRClUBbqsCFA,7186636550,WATER ST,SEAMORE’S DUMBO
Wan Wan,209 Mulberry St,New York,10012,NY,-73.99648359999999,40.72180362146175,107,4.5,,https://www.yelp.com/biz/wan-wan-new-york-2?adjust_creative=4OloIt1kPZ2nt6Pu4NdkDA&utm_campaign=yelp_api_v3&utm_medium=api_v3_business_search&utm_source=4OloIt1kPZ2nt6Pu4NdkDA,AybQUv47u16bwg83kqNf5w,2128886278,MULBERRY ST,WAN WAN
Atti,294 Livingston St,Brooklyn,11217,NY,-73.98289919999999,40.68841151989921,71,4.5,$$$$,https://www.yelp.com/biz/atti-brooklyn?adjust_creative=4OloIt1kPZ2nt6Pu4NdkDA&utm_campaign=yelp_api_v3&utm_medium=api_v3_business_search&utm_source=4OloIt1kPZ2nt6Pu4NdkDA,mnXrPqOVbX_06D9OAo4dLA,9179091122,LIVINGSTON ST,ATTI
Barn Joo,35 Union Sq W,New York,10003,NY,-73.99069,40.73684,1900,4.0,$$,https://www.yelp.com/biz/barn-joo-new-york-3?adjust_creative=4OloIt1kPZ2nt6Pu4NdkDA&utm_campaign=yelp_api_v3&utm_medium=api_v3_business_search&utm_source=4OloIt1kPZ2nt6Pu4NdkDA,FizBsTIAJwNrImIG1mPDcg,6463989663,UNION SQ W,BARN JOO
Evelina,211 Dekalb Ave,Brooklyn,11205,NY,-73.971003,40.689722,360,4.5,$$,https://www.yelp.com/biz/evelina-brooklyn-2?adjust_creative=4OloIt1kPZ2nt6Pu4NdkDA&utm_campaign=yelp_api_v3&utm_medium=api_v3_business_search&utm_source=4OloIt1kPZ2nt6Pu4NdkDA,mPHPVJ2-8mOR-lFHafrc6w,9292980209,DEKALB AVE,EVELINA
Little Kirin,81 St Marks Pl,New York,10003,NY,-73.98551,40.72782,188,5.0,$$,https://www.yelp.com/biz/little-kirin-new-york?adjust_creative=4OloIt1kPZ2nt6Pu4NdkDA&utm_campaign=yelp_api_v3&utm_medium=api_v3_business_search&utm_source=4OloIt1kPZ2nt6Pu4NdkDA,S3ZAZrpakAUs8sVUb6ving,6463989733,ST MARKS PL,LITTLE KIRIN
Thai Diner,186 Mott St,New York,10012,NY,-73.9956057,40.72071042964739,726,4.0,$$,https://www.yelp.com/biz/thai-diner-new-york?adjust_creative=4OloIt1kPZ2nt6Pu4NdkDA&utm_campaign=yelp_api_v3&utm_medium=api_v3_business_search&utm_source=4OloIt1kPZ2nt6Pu4NdkDA,XgiG7K7ubHsj2JJ-c2sXnw,6465594140,MOTT ST,THAI DINER
Shuka,38 MacDougal St,New York,10012,NY,-74.00283,40.72707,955,4.5,$$$,https://www.yelp.com/biz/shuka-new-york-3?adjust_creative=4OloIt1kPZ2nt6Pu4NdkDA&utm_campaign=yelp_api_v3&utm_medium=api_v3_business_search&utm_source=4OloIt1kPZ2nt6Pu4NdkDA,Rj2ACaJcbroJLPDhRhzvBw,2124757500,MACDOUGAL ST,SHUKA
886,26 Saint Marks Pl,New York,10003,NY,-73.98873,40.72877,679,4.0,$$,https://www.yelp.com/biz/886-new-york?adjust_creative=4OloIt1kPZ2nt6Pu4NdkDA&utm_campaign=yelp_api_v3&utm_medium=api_v3_business_search&utm_source=4OloIt1kPZ2nt6Pu4NdkDA,8Oo2AtQEPDfxIOnA8wfXoQ,6468820231,SAINT MARKS PL,886
While We Were Young,183 W 10th St,New York,10014,NY,-74.00272,40.73437,451,4.0,$$,https://www.yelp.com/biz/while-we-were-young-new-york?adjust_creative=4OloIt1kPZ2nt6Pu4NdkDA&utm_campaign=yelp_api_v3&utm_medium=api_v3_business_search&utm_source=4OloIt1kPZ2nt6Pu4NdkDA,YSflX6shqcP3zYno0Zz75Q,9176756272,W 10TH ST,WHILE WE WERE YOUNG
Very Fresh Noodles,409 W 15th St,New York,10011,NY,-74.00565,40.74207,1443,4.5,$$,https://www.yelp.com/biz/very-fresh-noodles-new-york?adjust_creative=4OloIt1kPZ2nt6Pu4NdkDA&utm_campaign=yelp_api_v3&utm_medium=api_v3_business_search&utm_source=4OloIt1kPZ2nt6Pu4NdkDA,oe8GEFE4QLFAKt87y7zcgA,3322156161,W 15TH ST,VERY FRESH NOODLES
The Hideaway Seaport,22 Peck Slip,New York,10038,NY,-74.002083,40.7080634,134,4.0,$$,https://www.yelp.com/biz/the-hideaway-seaport-new-york?adjust_creative=4OloIt1kPZ2nt6Pu4NdkDA&utm_campaign=yelp_api_v3&utm_medium=api_v3_business_search&utm_source=4OloIt1kPZ2nt6Pu4NdkDA,7szsAtxOkGJ2ady3Qx7v4w,2123852222,PECK SLIP,THE HIDEAWAY SEAPORT
Ingas Bar,66 Hicks St,Brooklyn,11201,NY,-73.99371282578757,40.69992328722937,40,4.0,,https://www.yelp.com/biz/ingas-bar-brooklyn?adjust_creative=4OloIt1kPZ2nt6Pu4NdkDA&utm_campaign=yelp_api_v3&utm_medium=api_v3_business_search&utm_source=4OloIt1kPZ2nt6Pu4NdkDA,48nRODGl30EWpYMcCTOeAw,9179091177,HICKS ST,INGAS BAR
Little Owl,90 Bedford St,New York,10014,NY,-74.00532068435112,40.73240001181511,1457,4.0,$$$,https://www.yelp.com/biz/little-owl-new-york-3?adjust_creative=4OloIt1kPZ2nt6Pu4NdkDA&utm_campaign=yelp_api_v3&utm_medium=api_v3_business_search&utm_source=4OloIt1kPZ2nt6Pu4NdkDA,q1uIqB8PvyCCX8TajaRYBg,2127414695,BEDFORD ST,LITTLE OWL
C as in Charlie,5 Bleecker St,New York,10012,NY,-73.99269,40.72545,177,4.5,,https://www.yelp.com/biz/c-as-in-charlie-new-york?adjust_creative=4OloIt1kPZ2nt6Pu4NdkDA&utm_campaign=yelp_api_v3&utm_medium=api_v3_business_search&utm_source=4OloIt1kPZ2nt6Pu4NdkDA,pZWhRtCJvTuwWoavaiCQrA,nan,BLEECKER ST,C AS IN CHARLIE
K'Far - Brooklyn,97 Wythe Ave,Brooklyn,11249,NY,-73.9586038582844,40.7209634,107,4.5,,https://www.yelp.com/biz/kfar-brooklyn-brooklyn?adjust_creative=4OloIt1kPZ2nt6Pu4NdkDA&utm_campaign=yelp_api_v3&utm_medium=api_v3_business_search&utm_source=4OloIt1kPZ2nt6Pu4NdkDA,D_Rjd2js4_lkk51Obvlveg,7182157100,WYTHE AVE,K'FAR - BROOKLYN
Au Cheval,33 Cortlandt Aly,New York,10013,NY,-74.0015522,40.7183878,858,4.5,$$$,https://www.yelp.com/biz/au-cheval-new-york-7?adjust_creative=4OloIt1kPZ2nt6Pu4NdkDA&utm_campaign=yelp_api_v3&utm_medium=api_v3_business_search&utm_source=4OloIt1kPZ2nt6Pu4NdkDA,__EvomQ2tE1NtkWn32WEXg,6463502429,CORTLANDT ALY,AU CHEVAL
Top Thai Vintage,55 Carmine St,New York,10014,NY,-74.00421380395268,40.729907419973344,1082,4.5,$$,https://www.yelp.com/biz/top-thai-vintage-new-york-3?adjust_creative=4OloIt1kPZ2nt6Pu4NdkDA&utm_campaign=yelp_api_v3&utm_medium=api_v3_business_search&utm_source=4OloIt1kPZ2nt6Pu4NdkDA,0IFDnYf3bhqxJR6hVrG7Gw,6466092272,CARMINE ST,TOP THAI VINTAGE
Clover Hill,20 Columbia Pl,Brooklyn,11201,NY,-73.99871,40.69316,47,4.5,,https://www.yelp.com/biz/clover-hill-brooklyn?adjust_creative=4OloIt1kPZ2nt6Pu4NdkDA&utm_campaign=yelp_api_v3&utm_medium=api_v3_business_search&utm_source=4OloIt1kPZ2nt6Pu4NdkDA,OQbccovdHgjenH-sJIbFPw,3474576850,COLUMBIA PL,CLOVER HILL
The River Café,1 Water St,Brooklyn,11201,NY,-73.99479360219303,40.703866713051106,1285,4.0,$$$$,https://www.yelp.com/biz/the-river-caf%C3%A9-brooklyn-3?adjust_creative=4OloIt1kPZ2nt6Pu4NdkDA&utm_campaign=yelp_api_v3&utm_medium=api_v3_business_search&utm_source=4OloIt1kPZ2nt6Pu4NdkDA,4XX-zF8h5Lvrr22_tqU6-Q,7185225200,WATER ST,THE RIVER CAFÉ
Chama Mama - Brooklyn,121 Montague St,Brooklyn,11201,NY,-73.994544,40.695119,7,4.0,,https://www.yelp.com/biz/chama-mama-brooklyn-brooklyn?adjust_creative=4OloIt1kPZ2nt6Pu4NdkDA&utm_campaign=yelp_api_v3&utm_medium=api_v3_business_search&utm_source=4OloIt1kPZ2nt6Pu4NdkDA,JQDVA6_dRpg7RlxlZmJr0w,3476892725,MONTAGUE ST,CHAMA MAMA - BROOKLYN
Bread & Spread,151 Front St,Dumbo,11201,NY,-73.9869119,40.7025945,213,4.5,$$,https://www.yelp.com/biz/bread-and-spread-dumbo?adjust_creative=4OloIt1kPZ2nt6Pu4NdkDA&utm_campaign=yelp_api_v3&utm_medium=api_v3_business_search&utm_source=4OloIt1kPZ2nt6Pu4NdkDA,GLf8_rOnkszkGmPAiMzO9Q,7186252220,FRONT ST,BREAD & SPREAD
DumboLuv,54 Jay St,Brooklyn,11201,NY,-73.98676,40.70327,9,4.5,,https://www.yelp.com/biz/dumboluv-brooklyn-3?adjust_creative=4OloIt1kPZ2nt6Pu4NdkDA&utm_campaign=yelp_api_v3&utm_medium=api_v3_business_search&utm_source=4OloIt1kPZ2nt6Pu4NdkDA,cRsIsiuoV11zX8oLY8brhQ,nan,JAY ST,DUMBOLUV
The Mayfly,269 E Houston St,New York,10002,NY,-73.98462,40.72152,60,4.5,,https://www.yelp.com/biz/the-mayfly-new-york?adjust_creative=4OloIt1kPZ2nt6Pu4NdkDA&utm_campaign=yelp_api_v3&utm_medium=api_v3_business_search&utm_source=4OloIt1kPZ2nt6Pu4NdkDA,-R5CBTnY10kdVNNv0lbHnA,6464498435,E HOUSTON ST,THE MAYFLY
Double Chicken Please,115 Allen St,New York,10002,NY,-73.990486,40.719584,502,4.5,$$,https://www.yelp.com/biz/double-chicken-please-new-york?adjust_creative=4OloIt1kPZ2nt6Pu4NdkDA&utm_campaign=yelp_api_v3&utm_medium=api_v3_business_search&utm_source=4OloIt1kPZ2nt6Pu4NdkDA,FgPvSR_42MtGKy0_n055iw,6466785452,ALLEN ST,DOUBLE CHICKEN PLEASE
Monsieur Vo,104 2nd Ave,New York,10003,NY,-73.98816,40.72741,91,4.5,,https://www.yelp.com/biz/monsieur-vo-new-york?adjust_creative=4OloIt1kPZ2nt6Pu4NdkDA&utm_campaign=yelp_api_v3&utm_medium=api_v3_business_search&utm_source=4OloIt1kPZ2nt6Pu4NdkDA,37xSQ6l3feGBbmoqN84H3g,9176757068,2ND AVE,MONSIEUR VO
The Four Horsemen,295 Grand St,Brooklyn,11211,NY,-73.95732,40.71305,316,4.5,$$,https://www.yelp.com/biz/the-four-horsemen-brooklyn?adjust_creative=4OloIt1kPZ2nt6Pu4NdkDA&utm_campaign=yelp_api_v3&utm_medium=api_v3_business_search&utm_source=4OloIt1kPZ2nt6Pu4NdkDA,Orbsfc3nI21mQ8cwSPahhg,7185994900,GRAND ST,THE FOUR HORSEMEN
Helen's,22 1/2 Ninth Ave,New York,10014,NY,-74.00562667,40.74029833,92,4.5,$$,https://www.yelp.com/biz/helens-new-york?adjust_creative=4OloIt1kPZ2nt6Pu4NdkDA&utm_campaign=yelp_api_v3&utm_medium=api_v3_business_search&utm_source=4OloIt1kPZ2nt6Pu4NdkDA,qLJYqqj9vu0sdBJsxQKYjQ,6469985136,1/2 NINTH AVE,HELEN'S
Fifty Henry,50 Henry St,Brooklyn,11201,NY,-73.99227966108869,40.69955614677912,18,4.5,,https://www.yelp.com/biz/fifty-henry-brooklyn?adjust_creative=4OloIt1kPZ2nt6Pu4NdkDA&utm_campaign=yelp_api_v3&utm_medium=api_v3_business_search&utm_source=4OloIt1kPZ2nt6Pu4NdkDA,IjygKmi3dhRyBe-MV9rXFw,7188555595,HENRY ST,FIFTY HENRY
Dawn's ‘Til Dusk,33 Main St,Brooklyn,11201,NY,-73.9904543407859,40.70336875110399,20,4.5,,https://www.yelp.com/biz/dawns-til-dusk-brooklyn-2?adjust_creative=4OloIt1kPZ2nt6Pu4NdkDA&utm_campaign=yelp_api_v3&utm_medium=api_v3_business_search&utm_source=4OloIt1kPZ2nt6Pu4NdkDA,SB4crLLqZy4RdoA3e7yDNA,2126754996,MAIN ST,DAWN'S ‘TIL DUSK
Roscioli,43 MacDougal St,New York,10011,NY,-74.00253,40.72772,9,4.5,,https://www.yelp.com/biz/roscioli-new-york-2?adjust_creative=4OloIt1kPZ2nt6Pu4NdkDA&utm_campaign=yelp_api_v3&utm_medium=api_v3_business_search&utm_source=4OloIt1kPZ2nt6Pu4NdkDA,5eTSnxcWeAnFfNMThdmwNw,nan,MACDOUGAL ST,ROSCIOLI
Noodle Pudding,38 Henry St,Brooklyn,11201,NY,-73.99203,40.69979,618,4.0,$$,https://www.yelp.com/biz/noodle-pudding-brooklyn?adjust_creative=4OloIt1kPZ2nt6Pu4NdkDA&utm_campaign=yelp_api_v3&utm_medium=api_v3_business_search&utm_source=4OloIt1kPZ2nt6Pu4NdkDA,_N92SH1Zi-Hbxn_bNHFz0Q,7186253737,HENRY ST,NOODLE PUDDING
Lindens,2 Renwick St,New York,10013,NY,-74.00837,40.72418,129,4.5,,https://www.yelp.com/biz/lindens-new-york?adjust_creative=4OloIt1kPZ2nt6Pu4NdkDA&utm_campaign=yelp_api_v3&utm_medium=api_v3_business_search&utm_source=4OloIt1kPZ2nt6Pu4NdkDA,29vdYkOQUJ8641RvABAUWA,2123908484,RENWICK ST,LINDENS
Pomp and Circumstance,577 Lorimer St,Brooklyn,11211,NY,-73.9496365,40.71427259634444,161,5.0,$$$,https://www.yelp.com/biz/pomp-and-circumstance-brooklyn?adjust_creative=4OloIt1kPZ2nt6Pu4NdkDA&utm_campaign=yelp_api_v3&utm_medium=api_v3_business_search&utm_source=4OloIt1kPZ2nt6Pu4NdkDA,QQpQujXQGbZBK6BeAokzDA,7183874861,LORIMER ST,POMP AND CIRCUMSTANCE
Uncle Lou,73 Mulberry St,New York,10013,NY,-73.99925,40.71623,358,4.0,$$,https://www.yelp.com/biz/uncle-lou-new-york-3?adjust_creative=4OloIt1kPZ2nt6Pu4NdkDA&utm_campaign=yelp_api_v3&utm_medium=api_v3_business_search&utm_source=4OloIt1kPZ2nt6Pu4NdkDA,E_Rxnmim6J2ECFtU0QGlsQ,2129665538,MULBERRY ST,UNCLE LOU
Grimaldi's Pizzeria,1 Front St,Brooklyn,11201,NY,-73.9932413,40.7026459,4958,3.5,$$,https://www.yelp.com/biz/grimaldis-pizzeria-brooklyn-4?adjust_creative=4OloIt1kPZ2nt6Pu4NdkDA&utm_campaign=yelp_api_v3&utm_medium=api_v3_business_search&utm_source=4OloIt1kPZ2nt6Pu4NdkDA,2ggi1luerd3Mf_C82JvCYg,7188584300,FRONT ST,GRIMALDI'S PIZZERIA
Ruby's Cafe - East Village,198 E 11th St,New York,10003,NY,-73.988061,40.730932,390,4.5,$$,https://www.yelp.com/biz/rubys-cafe-east-village-new-york-2?adjust_creative=4OloIt1kPZ2nt6Pu4NdkDA&utm_campaign=yelp_api_v3&utm_medium=api_v3_business_search&utm_source=4OloIt1kPZ2nt6Pu4NdkDA,8bIXIStb1SVu1sXYfcMH5g,6469984265,E 11TH ST,RUBY'S CAFE - EAST VILLAGE
David Burke TImeout Market,55 Water St,Brooklyn,11201,NY,-73.992147,40.7034191,2,4.5,,https://www.yelp.com/biz/david-burke-timeout-market-brooklyn?adjust_creative=4OloIt1kPZ2nt6Pu4NdkDA&utm_campaign=yelp_api_v3&utm_medium=api_v3_business_search&utm_source=4OloIt1kPZ2nt6Pu4NdkDA,YfB7r67NbrFpuret7TTtBQ,9178104855,WATER ST,DAVID BURKE TIMEOUT MARKET
The Fulton by Jean-Georges,89 South St,New York,10038,NY,-74.00105402509251,40.70536986650792,451,3.5,$$$,https://www.yelp.com/biz/the-fulton-by-jean-georges-new-york-2?adjust_creative=4OloIt1kPZ2nt6Pu4NdkDA&utm_campaign=yelp_api_v3&utm_medium=api_v3_business_search&utm_source=4OloIt1kPZ2nt6Pu4NdkDA,LOeDR4X-YRToeo3hy_plew,2128381200,SOUTH ST,THE FULTON BY JEAN-GEORGES
Win Son,159 Graham Ave,Brooklyn,11206,NY,-73.94339,40.70747,742,4.0,$$,https://www.yelp.com/biz/win-son-brooklyn-4?adjust_creative=4OloIt1kPZ2nt6Pu4NdkDA&utm_campaign=yelp_api_v3&utm_medium=api_v3_business_search&utm_source=4OloIt1kPZ2nt6Pu4NdkDA,3gqKLANaXNsHZnPDjKrcTg,3474576010,GRAHAM AVE,WIN SON
Saigon Shack,114 Macdougal St,New York,10012,NY,-74.000629,40.72969,2697,4.0,$$,https://www.yelp.com/biz/saigon-shack-new-york?adjust_creative=4OloIt1kPZ2nt6Pu4NdkDA&utm_campaign=yelp_api_v3&utm_medium=api_v3_business_search&utm_source=4OloIt1kPZ2nt6Pu4NdkDA,7Qvh0oFRsoqrO9qNlcMKXQ,2122280588,MACDOUGAL ST,SAIGON SHACK
Forma Pasta Factory,14 Bedford Ave,Brooklyn,11222,NY,-73.95157,40.72371,636,4.5,$$,https://www.yelp.com/biz/forma-pasta-factory-brooklyn?adjust_creative=4OloIt1kPZ2nt6Pu4NdkDA&utm_campaign=yelp_api_v3&utm_medium=api_v3_business_search&utm_source=4OloIt1kPZ2nt6Pu4NdkDA,HodL0fXoF08C3Ir-kLeTtw,7183492009,BEDFORD AVE,FORMA PASTA FACTORY
MayRee,58 E 1st St,New York,10003,NY,-73.9893,40.72374,45,5.0,,https://www.yelp.com/biz/mayree-new-york?adjust_creative=4OloIt1kPZ2nt6Pu4NdkDA&utm_campaign=yelp_api_v3&utm_medium=api_v3_business_search&utm_source=4OloIt1kPZ2nt6Pu4NdkDA,Cebmp5-kEcdb4dBPrMKkWg,9299896213,E 1ST ST,MAYREE
Rice Kitchen,204 Spring St,New York,10012,NY,-74.003712,40.725166,173,5.0,$$,https://www.yelp.com/biz/rice-kitchen-new-york?adjust_creative=4OloIt1kPZ2nt6Pu4NdkDA&utm_campaign=yelp_api_v3&utm_medium=api_v3_business_search&utm_source=4OloIt1kPZ2nt6Pu4NdkDA,HUKn7SlSjYtemmPiGLnD2w,6466092970,SPRING ST,RICE KITCHEN
Anytime Kitchen ,23 W 32nd St,New York,10001,NY,-73.9867793576711,40.74776270790539,2723,4.5,$$,https://www.yelp.com/biz/anytime-kitchen-new-york-2?adjust_creative=4OloIt1kPZ2nt6Pu4NdkDA&utm_campaign=yelp_api_v3&utm_medium=api_v3_business_search&utm_source=4OloIt1kPZ2nt6Pu4NdkDA,VvsZAnEwU4c8Xkyrzx05Nw,6466697733,W 32ND ST,ANYTIME KITCHEN 
Sartiano's,99 Prince St,New York,10012,NY,-73.99865347261444,40.72479646297092,23,4.5,,https://www.yelp.com/biz/sartianos-new-york-2?adjust_creative=4OloIt1kPZ2nt6Pu4NdkDA&utm_campaign=yelp_api_v3&utm_medium=api_v3_business_search&utm_source=4OloIt1kPZ2nt6Pu4NdkDA,WAVszL8c2-JhQdFpUAxFBg,2126581155,PRINCE ST,SARTIANO'S
Lillo Cucina Italiana,331 Henry St,Brooklyn,11201,NY,-73.99634,40.69023,211,5.0,$$,https://www.yelp.com/biz/lillo-cucina-italiana-brooklyn?adjust_creative=4OloIt1kPZ2nt6Pu4NdkDA&utm_campaign=yelp_api_v3&utm_medium=api_v3_business_search&utm_source=4OloIt1kPZ2nt6Pu4NdkDA,qgY41g_eg0eNzewCXmKcaA,3477630899,HENRY ST,LILLO CUCINA ITALIANA
YUBU,86 E 7th St,New York,10003,NY,-73.98608,40.72702,333,4.5,$$,https://www.yelp.com/biz/yubu-new-york?adjust_creative=4OloIt1kPZ2nt6Pu4NdkDA&utm_campaign=yelp_api_v3&utm_medium=api_v3_business_search&utm_source=4OloIt1kPZ2nt6Pu4NdkDA,aZ_a78wVWnQnV6BdMwcFVA,6468910116,E 7TH ST,YUBU
Jack's Wife Freda,258 Wythe Ave,New York,11249,NY,-73.96322,40.71707,55,4.0,,https://www.yelp.com/biz/jacks-wife-freda-new-york-5?adjust_creative=4OloIt1kPZ2nt6Pu4NdkDA&utm_campaign=yelp_api_v3&utm_medium=api_v3_business_search&utm_source=4OloIt1kPZ2nt6Pu4NdkDA,fuSjpC1qw3fLih5SYUoOvg,7183558280,WYTHE AVE,JACK'S WIFE FREDA
Xolo,29 Dunham Pl,Brooklyn,11249,NY,-73.96761,40.71153,30,4.5,,https://www.yelp.com/biz/xolo-brooklyn?adjust_creative=4OloIt1kPZ2nt6Pu4NdkDA&utm_campaign=yelp_api_v3&utm_medium=api_v3_business_search&utm_source=4OloIt1kPZ2nt6Pu4NdkDA,MwyEUg5EXuqTf1mjKU08ng,9292980032,DUNHAM PL,XOLO
Bar 56,53 Water St,Brooklyn,11201,NY,-73.99241567954792,40.70343572990792,1,4.0,,https://www.yelp.com/biz/bar-56-brooklyn?adjust_creative=4OloIt1kPZ2nt6Pu4NdkDA&utm_campaign=yelp_api_v3&utm_medium=api_v3_business_search&utm_source=4OloIt1kPZ2nt6Pu4NdkDA,47-Zk7oz8-jVS2zvXbZgHQ,nan,WATER ST,BAR 56
Wenwen,1025 Manhattan Ave,Brooklyn,11222,NY,-73.95504,40.73398,194,4.0,,https://www.yelp.com/biz/wenwen-brooklyn-2?adjust_creative=4OloIt1kPZ2nt6Pu4NdkDA&utm_campaign=yelp_api_v3&utm_medium=api_v3_business_search&utm_source=4OloIt1kPZ2nt6Pu4NdkDA,vQX7y4Yoknpso033IDATqA,6469015644,MANHATTAN AVE,WENWEN
Okdongsik,13 E 30th St,New York,10016,NY,-73.98543,40.74561,208,4.5,$$,https://www.yelp.com/biz/okdongsik-new-york?adjust_creative=4OloIt1kPZ2nt6Pu4NdkDA&utm_campaign=yelp_api_v3&utm_medium=api_v3_business_search&utm_source=4OloIt1kPZ2nt6Pu4NdkDA,js7pXIr0lGoTd_6HPMPckg,nan,E 30TH ST,OKDONGSIK
Wayla,100 Forsyth St,New York,10002,NY,-73.9926038,40.7183,647,4.5,$$$,https://www.yelp.com/biz/wayla-new-york?adjust_creative=4OloIt1kPZ2nt6Pu4NdkDA&utm_campaign=yelp_api_v3&utm_medium=api_v3_business_search&utm_source=4OloIt1kPZ2nt6Pu4NdkDA,liZmIO0FqZwslLJfLDkfgw,2122062500,FORSYTH ST,WAYLA
Despaña Fine Foods & Tapas Cafe,408 Broome St,New York,10013,NY,-73.9978255,40.721094,596,4.5,$$,https://www.yelp.com/biz/despa%C3%B1a-fine-foods-and-tapas-cafe-new-york-2?adjust_creative=4OloIt1kPZ2nt6Pu4NdkDA&utm_campaign=yelp_api_v3&utm_medium=api_v3_business_search&utm_source=4OloIt1kPZ2nt6Pu4NdkDA,cUyfnb3E7HvzNfbTgTjl_Q,2122195050,BROOME ST,DESPAÑA FINE FOODS & TAPAS CAFE
Ippudo NY,65 4th Ave,New York,10003,NY,-73.990254,40.730925,10650,4.0,$$,https://www.yelp.com/biz/ippudo-ny-new-york-7?adjust_creative=4OloIt1kPZ2nt6Pu4NdkDA&utm_campaign=yelp_api_v3&utm_medium=api_v3_business_search&utm_source=4OloIt1kPZ2nt6Pu4NdkDA,44SY464xDHbvOcjDzRbKkQ,2123880088,4TH AVE,IPPUDO NY
Artesano Peruvian Cuisine,90 Chambers St,New York,10007,NY,-74.0074549,40.714477664263505,81,4.5,,https://www.yelp.com/biz/artesano-peruvian-cuisine-new-york?adjust_creative=4OloIt1kPZ2nt6Pu4NdkDA&utm_campaign=yelp_api_v3&utm_medium=api_v3_business_search&utm_source=4OloIt1kPZ2nt6Pu4NdkDA,gXgE7myTLwzXpnlfTXlzKQ,2123720297,CHAMBERS ST,ARTESANO PERUVIAN CUISINE
Jiang Nan,103 Bowery,New York,10002,NY,-73.99498,40.7175581,97,4.0,,https://www.yelp.com/biz/jiang-nan-new-york?adjust_creative=4OloIt1kPZ2nt6Pu4NdkDA&utm_campaign=yelp_api_v3&utm_medium=api_v3_business_search&utm_source=4OloIt1kPZ2nt6Pu4NdkDA,LTVNsNBh_0FI8MYrPfjRDQ,2127758998,BOWERY,JIANG NAN
Nura,46 Norman Ave,Brooklyn,11222,NY,-73.95371,40.72467,126,4.5,,https://www.yelp.com/biz/nura-brooklyn-2?adjust_creative=4OloIt1kPZ2nt6Pu4NdkDA&utm_campaign=yelp_api_v3&utm_medium=api_v3_business_search&utm_source=4OloIt1kPZ2nt6Pu4NdkDA,ANnbbwv_ZTFPcNdzSMUiZw,3476721222,NORMAN AVE,NURA
Taiwanese Yummy,,New York,10007,NY,-74.0072,40.713,7,4.0,,https://www.yelp.com/biz/taiwanese-yummy-new-york?adjust_creative=4OloIt1kPZ2nt6Pu4NdkDA&utm_campaign=yelp_api_v3&utm_medium=api_v3_business_search&utm_source=4OloIt1kPZ2nt6Pu4NdkDA,6YxjANE2V7n8TehK79C9wg,nan,,TAIWANESE YUMMY
Carlotto,100 E 19th St,New York,10003,NY,-73.98782,40.7375,26,4.5,,https://www.yelp.com/biz/carlotto-new-york?adjust_creative=4OloIt1kPZ2nt6Pu4NdkDA&utm_campaign=yelp_api_v3&utm_medium=api_v3_business_search&utm_source=4OloIt1kPZ2nt6Pu4NdkDA,JFmWkslCGTeuwC_Yews4-Q,2122091054,E 19TH ST,CARLOTTO
Ugly Baby,407 Smith St,Brooklyn,11231,NY,-73.9961,40.67795,447,4.0,$$$,https://www.yelp.com/biz/ugly-baby-brooklyn-3?adjust_creative=4OloIt1kPZ2nt6Pu4NdkDA&utm_campaign=yelp_api_v3&utm_medium=api_v3_business_search&utm_source=4OloIt1kPZ2nt6Pu4NdkDA,e64Y17DJgjotSz8B9gEI7Q,3476893075,SMITH ST,UGLY BABY
Leitao,547 Hudson St,New York,10014,NY,-74.00628,40.73495,137,4.5,$$$,https://www.yelp.com/biz/leitao-new-york-3?adjust_creative=4OloIt1kPZ2nt6Pu4NdkDA&utm_campaign=yelp_api_v3&utm_medium=api_v3_business_search&utm_source=4OloIt1kPZ2nt6Pu4NdkDA,q2Vq56jenOx8cXD2fCupYg,2128109944,HUDSON ST,LEITAO
Mom's Kitchen & Bar,701 9th Ave,New York,10019,NY,-73.9901,40.76247,1783,4.5,$$,https://www.yelp.com/biz/moms-kitchen-and-bar-new-york?adjust_creative=4OloIt1kPZ2nt6Pu4NdkDA&utm_campaign=yelp_api_v3&utm_medium=api_v3_business_search&utm_source=4OloIt1kPZ2nt6Pu4NdkDA,xMUZfoyzyJoTfZxrEZus4Q,6466570080,9TH AVE,MOM'S KITCHEN & BAR
Colonie,127 Atlantic Ave,Brooklyn,11201,NY,-73.9958,40.6909,664,4.0,$$$,https://www.yelp.com/biz/colonie-brooklyn?adjust_creative=4OloIt1kPZ2nt6Pu4NdkDA&utm_campaign=yelp_api_v3&utm_medium=api_v3_business_search&utm_source=4OloIt1kPZ2nt6Pu4NdkDA,wouDDTacUIBaRp8YGCFTsA,7188557500,ATLANTIC AVE,COLONIE
Sweetwater Restaurant,105 N 6th St,Brooklyn,11249,NY,-73.9600178,40.7184736,469,4.0,$$,https://www.yelp.com/biz/sweetwater-restaurant-brooklyn-2?adjust_creative=4OloIt1kPZ2nt6Pu4NdkDA&utm_campaign=yelp_api_v3&utm_medium=api_v3_business_search&utm_source=4OloIt1kPZ2nt6Pu4NdkDA,8wMJdpw2R_4VfS55itB_gQ,7189630608,N 6TH ST,SWEETWATER RESTAURANT
Mesiba,353 Bedford Ave,Brooklyn,11211,NY,-73.96294298685073,40.711737904737646,38,4.0,,https://www.yelp.com/biz/mesiba-brooklyn?adjust_creative=4OloIt1kPZ2nt6Pu4NdkDA&utm_campaign=yelp_api_v3&utm_medium=api_v3_business_search&utm_source=4OloIt1kPZ2nt6Pu4NdkDA,Fj_i2oTy-4ZxVIdFYmOTRw,nan,BEDFORD AVE,MESIBA
Fulton Fish,96 South St,New York,10038,NY,-74.00230669999999,40.70623460823695,22,4.5,$$$,https://www.yelp.com/biz/fulton-fish-new-york-3?adjust_creative=4OloIt1kPZ2nt6Pu4NdkDA&utm_campaign=yelp_api_v3&utm_medium=api_v3_business_search&utm_source=4OloIt1kPZ2nt6Pu4NdkDA,kr_r3cmFlhgr_1jjLHMgfg,6468686000,SOUTH ST,FULTON FISH
Red Hook Tavern,329 Van Brunt St,Brooklyn,11231,NY,-74.01209,40.67788,174,4.0,$$$,https://www.yelp.com/biz/red-hook-tavern-brooklyn?adjust_creative=4OloIt1kPZ2nt6Pu4NdkDA&utm_campaign=yelp_api_v3&utm_medium=api_v3_business_search&utm_source=4OloIt1kPZ2nt6Pu4NdkDA,DI0PHE6PVTpJF6dvG_d1Wg,9179666094,VAN BRUNT ST,RED HOOK TAVERN
Mama Lee - Williamsburg,66 Grand St,Brooklyn,11249,NY,-73.9649236,40.715591,22,4.5,,https://www.yelp.com/biz/mama-lee-williamsburg-brooklyn?adjust_creative=4OloIt1kPZ2nt6Pu4NdkDA&utm_campaign=yelp_api_v3&utm_medium=api_v3_business_search&utm_source=4OloIt1kPZ2nt6Pu4NdkDA,ejdQq4SvCv-qE7qSYhtVoA,7186839820,GRAND ST,MAMA LEE - WILLIAMSBURG
Momoya SoHo,47 Prince St,New York,10012,NY,-73.99579,40.72349,191,4.0,$$$,https://www.yelp.com/biz/momoya-soho-new-york?adjust_creative=4OloIt1kPZ2nt6Pu4NdkDA&utm_campaign=yelp_api_v3&utm_medium=api_v3_business_search&utm_source=4OloIt1kPZ2nt6Pu4NdkDA,dCDpb-fz6Ton9AXLoaWIhA,6464299315,PRINCE ST,MOMOYA SOHO
Nowon East Village ,507 East 6th St,New York,10009,NY,-73.98334,40.72532,294,4.5,$$$,https://www.yelp.com/biz/nowon-east-village-new-york-3?adjust_creative=4OloIt1kPZ2nt6Pu4NdkDA&utm_campaign=yelp_api_v3&utm_medium=api_v3_business_search&utm_source=4OloIt1kPZ2nt6Pu4NdkDA,LMyvruexOQzzHQrAgbdqiA,6466923867,EAST 6TH ST,NOWON EAST VILLAGE 
Sanmiwago,90 Bowery,New York,10013,NY,-73.99553981166072,40.71747331646992,51,4.0,$,https://www.yelp.com/biz/sanmiwago-new-york-5?adjust_creative=4OloIt1kPZ2nt6Pu4NdkDA&utm_campaign=yelp_api_v3&utm_medium=api_v3_business_search&utm_source=4OloIt1kPZ2nt6Pu4NdkDA,j1Dh7TaT9enatjzd3bO6iQ,nan,BOWERY,SANMIWAGO
Dora's Restaurant,40 Ave B,New York,10009,NY,-73.9830865,40.7229314,7,4.5,,https://www.yelp.com/biz/doras-restaurant-new-york?adjust_creative=4OloIt1kPZ2nt6Pu4NdkDA&utm_campaign=yelp_api_v3&utm_medium=api_v3_business_search&utm_source=4OloIt1kPZ2nt6Pu4NdkDA,vLNY7LUgkX-3sVoReBLNIw,6464845684,AVE B,DORA'S RESTAURANT
The Office of Mr Moto,120 Saint Marks Pl,New York,10009,NY,-73.984036,40.72682423372927,64,4.5,,https://www.yelp.com/biz/the-office-of-mr-moto-new-york?adjust_creative=4OloIt1kPZ2nt6Pu4NdkDA&utm_campaign=yelp_api_v3&utm_medium=api_v3_business_search&utm_source=4OloIt1kPZ2nt6Pu4NdkDA,w0muQDL21sXLI4JmMxvnzQ,6463604065,SAINT MARKS PL,THE OFFICE OF MR MOTO
Hole In The Wall,15 Cliff St,New York,10038,NY,-74.00578177901109,40.70838968823975,771,4.0,$$,https://www.yelp.com/biz/hole-in-the-wall-new-york-12?adjust_creative=4OloIt1kPZ2nt6Pu4NdkDA&utm_campaign=yelp_api_v3&utm_medium=api_v3_business_search&utm_source=4OloIt1kPZ2nt6Pu4NdkDA,rQpO1Eie_zmeAOQ9s-T0sQ,2126029991,CLIFF ST,HOLE IN THE WALL
5ive Spice,52 5th Ave,Brooklyn,11217,NY,-73.977241,40.681442,948,4.5,$$,https://www.yelp.com/biz/5ive-spice-brooklyn-3?adjust_creative=4OloIt1kPZ2nt6Pu4NdkDA&utm_campaign=yelp_api_v3&utm_medium=api_v3_business_search&utm_source=4OloIt1kPZ2nt6Pu4NdkDA,SSDOkx5enfRH3nsniS_2jA,7188573483,5TH AVE,5IVE SPICE
Temakase,157 Second Ave,New York,10003,NY,-73.987127,40.729711,678,4.5,,https://www.yelp.com/biz/temakase-new-york-4?adjust_creative=4OloIt1kPZ2nt6Pu4NdkDA&utm_campaign=yelp_api_v3&utm_medium=api_v3_business_search&utm_source=4OloIt1kPZ2nt6Pu4NdkDA,PjjpgjY_sdawJU1JHbyNTQ,2123811456,SECOND AVE,TEMAKASE
Selo,33-05 Broadway,Astoria,11106,NY,-73.92335,40.7613,106,5.0,,https://www.yelp.com/biz/selo-astoria?adjust_creative=4OloIt1kPZ2nt6Pu4NdkDA&utm_campaign=yelp_api_v3&utm_medium=api_v3_business_search&utm_source=4OloIt1kPZ2nt6Pu4NdkDA,o-N9S05IjZdEdzdO6DB3Bw,7189320101,BROADWAY,SELO
Sofreh,75 St Marks Ave,Brooklyn,11217,NY,-73.973984,40.6798617,424,4.0,$$$,https://www.yelp.com/biz/sofreh-brooklyn?adjust_creative=4OloIt1kPZ2nt6Pu4NdkDA&utm_campaign=yelp_api_v3&utm_medium=api_v3_business_search&utm_source=4OloIt1kPZ2nt6Pu4NdkDA,m4CFfE1_u5rwVgb45ZqRpA,6467981690,ST MARKS AVE,SOFREH
Esme,999 Manhattan Ave,Brooklyn,11222,NY,-73.95492695812946,40.73322607409529,408,4.5,$$,https://www.yelp.com/biz/esme-brooklyn-2?adjust_creative=4OloIt1kPZ2nt6Pu4NdkDA&utm_campaign=yelp_api_v3&utm_medium=api_v3_business_search&utm_source=4OloIt1kPZ2nt6Pu4NdkDA,6gzQLjzJk25ePm_JS7ZAug,3476893071,MANHATTAN AVE,ESME
San Marzano Pasta Fresca,117 Second Ave,New York,10003,NY,-73.988382,40.727966,1562,4.0,$$,https://www.yelp.com/biz/san-marzano-pasta-fresca-new-york?adjust_creative=4OloIt1kPZ2nt6Pu4NdkDA&utm_campaign=yelp_api_v3&utm_medium=api_v3_business_search&utm_source=4OloIt1kPZ2nt6Pu4NdkDA,k5fd-RSdG4IuXnnGSQ5oOw,2127773600,SECOND AVE,SAN MARZANO PASTA FRESCA
Hometown Bar-B-Que,454 Van Brunt St,Brooklyn,11231,NY,-74.01602,40.67486,1624,4.0,$$,https://www.yelp.com/biz/hometown-bar-b-que-brooklyn-3?adjust_creative=4OloIt1kPZ2nt6Pu4NdkDA&utm_campaign=yelp_api_v3&utm_medium=api_v3_business_search&utm_source=4OloIt1kPZ2nt6Pu4NdkDA,Ms3CAGddVbgetiQrpzqxPQ,3472944644,VAN BRUNT ST,HOMETOWN BAR-B-QUE
Sun Hing Lung Co,58 Henry St,New York,10002,NY,-73.9950764600962,40.7127362,243,4.5,$,https://www.yelp.com/biz/sun-hing-lung-co-new-york-3?adjust_creative=4OloIt1kPZ2nt6Pu4NdkDA&utm_campaign=yelp_api_v3&utm_medium=api_v3_business_search&utm_source=4OloIt1kPZ2nt6Pu4NdkDA,9-vKFnUby_6-pR6UJxjzMw,2129627032,HENRY ST,SUN HING LUNG CO
Nón Lá,128 E 4th St,New York,10003,NY,-73.987563,40.725287,215,4.5,$$,https://www.yelp.com/biz/n%C3%B3n-l%C3%A1-new-york-10?adjust_creative=4OloIt1kPZ2nt6Pu4NdkDA&utm_campaign=yelp_api_v3&utm_medium=api_v3_business_search&utm_source=4OloIt1kPZ2nt6Pu4NdkDA,8zTyhMq0ki83WoWrq4D0qw,9173883321,E 4TH ST,NÓN LÁ
Da Claudio,21 Ann St,New York,10038,NY,-74.00753,40.71087,628,4.0,$$,https://www.yelp.com/biz/da-claudio-new-york?adjust_creative=4OloIt1kPZ2nt6Pu4NdkDA&utm_campaign=yelp_api_v3&utm_medium=api_v3_business_search&utm_source=4OloIt1kPZ2nt6Pu4NdkDA,f8ipr8Wdy1_wHhw7JgNqPQ,2122852668,ANN ST,DA CLAUDIO
Junsui,65 Jay St,Brooklyn,11201,NY,-73.986366,40.702831,8,4.5,,https://www.yelp.com/biz/junsui-brooklyn-2?adjust_creative=4OloIt1kPZ2nt6Pu4NdkDA&utm_campaign=yelp_api_v3&utm_medium=api_v3_business_search&utm_source=4OloIt1kPZ2nt6Pu4NdkDA,1a_917E7n7bVmWXO31GvSQ,3473006400,JAY ST,JUNSUI
Nubiani,315 5th Ave,New York,10016,NY,-73.9854169149663,40.74700575561414,142,4.5,,https://www.yelp.com/biz/nubiani-new-york?adjust_creative=4OloIt1kPZ2nt6Pu4NdkDA&utm_campaign=yelp_api_v3&utm_medium=api_v3_business_search&utm_source=4OloIt1kPZ2nt6Pu4NdkDA,xTwzk3lh7tE2GFiVQop1kg,9176230807,5TH AVE,NUBIANI
Zizi,182 8th Ave,New York,10011,NY,-74.00002,40.74293,206,4.5,,https://www.yelp.com/biz/zizi-new-york-3?adjust_creative=4OloIt1kPZ2nt6Pu4NdkDA&utm_campaign=yelp_api_v3&utm_medium=api_v3_business_search&utm_source=4OloIt1kPZ2nt6Pu4NdkDA,tM8ZtEix8Bxg82AIKsHXcw,6466698162,8TH AVE,ZIZI
Sama Street,988 Manhattan Ave,Brooklyn,11222,NY,-73.9545232327229,40.7328843,196,5.0,$$$,https://www.yelp.com/biz/sama-street-brooklyn-2?adjust_creative=4OloIt1kPZ2nt6Pu4NdkDA&utm_campaign=yelp_api_v3&utm_medium=api_v3_business_search&utm_source=4OloIt1kPZ2nt6Pu4NdkDA,Swjm9no7DRqhThLlf0EHng,9292763140,MANHATTAN AVE,SAMA STREET
Nan Xiang Xiao Long Bao - Manhattan,24 W 33rd St,New York,10001,NY,-73.9857786,40.74822527534694,704,4.5,$$,https://www.yelp.com/biz/nan-xiang-xiao-long-bao-manhattan-new-york?adjust_creative=4OloIt1kPZ2nt6Pu4NdkDA&utm_campaign=yelp_api_v3&utm_medium=api_v3_business_search&utm_source=4OloIt1kPZ2nt6Pu4NdkDA,sRWRA4dcN_NR1JGpuRVouA,2129703888,W 33RD ST,NAN XIANG XIAO LONG BAO - MANHATTAN
Brooklyn BBQ,220 Cadman Plz W,Brooklyn,11201,NY,-73.991777,40.697978,24,4.0,$$,https://www.yelp.com/biz/brooklyn-bbq-brooklyn?adjust_creative=4OloIt1kPZ2nt6Pu4NdkDA&utm_campaign=yelp_api_v3&utm_medium=api_v3_business_search&utm_source=4OloIt1kPZ2nt6Pu4NdkDA,4fSVJCi8E_OIfIoe6UdqKg,3477991223,CADMAN PLZ W,BROOKLYN BBQ
Boucherie Union Square,225 Park Ave S,New York,10003,NY,-73.9882252705524,40.73725824850519,1431,4.5,$$$,https://www.yelp.com/biz/boucherie-union-square-new-york-2?adjust_creative=4OloIt1kPZ2nt6Pu4NdkDA&utm_campaign=yelp_api_v3&utm_medium=api_v3_business_search&utm_source=4OloIt1kPZ2nt6Pu4NdkDA,8XHbZIKDQbXhyKIGiukVeQ,2123530200,PARK AVE S,BOUCHERIE UNION SQUARE
Birbante,9 Old Fulton St,Brooklyn,11216,NY,-73.9938098,40.70290360000001,10,4.0,,https://www.yelp.com/biz/birbante-brooklyn?adjust_creative=4OloIt1kPZ2nt6Pu4NdkDA&utm_campaign=yelp_api_v3&utm_medium=api_v3_business_search&utm_source=4OloIt1kPZ2nt6Pu4NdkDA,8aMqgFzbAFgN9VsgA2jDOA,nan,OLD FULTON ST,BIRBANTE
Chito Gvrito,173 3rd Avenue,New York,10003,NY,-73.985862,40.734764,137,4.5,,https://www.yelp.com/biz/chito-gvrito-new-york?adjust_creative=4OloIt1kPZ2nt6Pu4NdkDA&utm_campaign=yelp_api_v3&utm_medium=api_v3_business_search&utm_source=4OloIt1kPZ2nt6Pu4NdkDA,zjQSHwU-raZZfuJ6KaVuZA,6467670154,3RD AVENUE,CHITO GVRITO
A & C Super,292 Leonard St,Brooklyn,11211,NY,-73.94750844687223,40.71410474693401,4,5.0,,https://www.yelp.com/biz/a-and-c-super-brooklyn?adjust_creative=4OloIt1kPZ2nt6Pu4NdkDA&utm_campaign=yelp_api_v3&utm_medium=api_v3_business_search&utm_source=4OloIt1kPZ2nt6Pu4NdkDA,NfRAi1k-B4yVuSpfwscJZA,3476894647,LEONARD ST,A & C SUPER
Sagaponack,4 W 22nd St,New York,10010,NY,-73.990692,40.741019,271,4.5,$$$,https://www.yelp.com/biz/sagaponack-new-york-6?adjust_creative=4OloIt1kPZ2nt6Pu4NdkDA&utm_campaign=yelp_api_v3&utm_medium=api_v3_business_search&utm_source=4OloIt1kPZ2nt6Pu4NdkDA,EDucGBSfQ0YIbxdHS-KnCg,2122292226,W 22ND ST,SAGAPONACK
Soba-ya,229 E 9th St,New York,10003,NY,-73.9878899,40.72965,1559,4.0,$$,https://www.yelp.com/biz/soba-ya-new-york?adjust_creative=4OloIt1kPZ2nt6Pu4NdkDA&utm_campaign=yelp_api_v3&utm_medium=api_v3_business_search&utm_source=4OloIt1kPZ2nt6Pu4NdkDA,i8ejDDR4COtukAAA1Ls5fw,2125336966,E 9TH ST,SOBA-YA
Curry House,9 Pell St,New York,10013,NY,-73.99770502336152,40.7147043540403,64,4.5,$$,https://www.yelp.com/biz/curry-house-new-york-3?adjust_creative=4OloIt1kPZ2nt6Pu4NdkDA&utm_campaign=yelp_api_v3&utm_medium=api_v3_business_search&utm_source=4OloIt1kPZ2nt6Pu4NdkDA,-bM9YDomW6BX3zGDHN24XQ,6466785131,PELL ST,CURRY HOUSE
Sushi Lab Rooftop,132 W 47th St,New York,10036,NY,-73.983292,40.758413,563,4.0,,https://www.yelp.com/biz/sushi-lab-rooftop-new-york-2?adjust_creative=4OloIt1kPZ2nt6Pu4NdkDA&utm_campaign=yelp_api_v3&utm_medium=api_v3_business_search&utm_source=4OloIt1kPZ2nt6Pu4NdkDA,7Q68kpPS6okcC8Kkw7g42A,2124320000,W 47TH ST,SUSHI LAB ROOFTOP
The Reading Room,16 E 46th St,New York,10017,NY,-73.97802,40.7555,97,4.5,,https://www.yelp.com/biz/the-reading-room-new-york?adjust_creative=4OloIt1kPZ2nt6Pu4NdkDA&utm_campaign=yelp_api_v3&utm_medium=api_v3_business_search&utm_source=4OloIt1kPZ2nt6Pu4NdkDA,QPEzLkO35OTYijFhs8d7-w,6463962708,E 46TH ST,THE READING ROOM
Frying Pan,207 12th Ave,New York,10001,NY,-74.00946793148883,40.75234966261573,1640,4.0,$$,https://www.yelp.com/biz/frying-pan-new-york?adjust_creative=4OloIt1kPZ2nt6Pu4NdkDA&utm_campaign=yelp_api_v3&utm_medium=api_v3_business_search&utm_source=4OloIt1kPZ2nt6Pu4NdkDA,bEloKDe-QVkwakAwmFKbbA,2129896363,12TH AVE,FRYING PAN
Taquito,96 S St,New York,10038,NY,-74.00230669999999,40.70625013269775,6,4.5,,https://www.yelp.com/biz/taquito-new-york?adjust_creative=4OloIt1kPZ2nt6Pu4NdkDA&utm_campaign=yelp_api_v3&utm_medium=api_v3_business_search&utm_source=4OloIt1kPZ2nt6Pu4NdkDA,43ytEn7XfwO4JaxO_1q8iQ,6468686000,S ST,TAQUITO
Libertine,684 Greenwich St,New York,10014,NY,-74.00763,40.73297,27,4.0,,https://www.yelp.com/biz/libertine-new-york-3?adjust_creative=4OloIt1kPZ2nt6Pu4NdkDA&utm_campaign=yelp_api_v3&utm_medium=api_v3_business_search&utm_source=4OloIt1kPZ2nt6Pu4NdkDA,q7lbzHyqaqa4LdqUxQMR1g,nan,GREENWICH ST,LIBERTINE
The Woo,206 Spring St,New York,10012,NY,-74.00371,40.7253,192,4.0,,https://www.yelp.com/biz/the-woo-new-york-2?adjust_creative=4OloIt1kPZ2nt6Pu4NdkDA&utm_campaign=yelp_api_v3&utm_medium=api_v3_business_search&utm_source=4OloIt1kPZ2nt6Pu4NdkDA,sHVnV3l2_mQefULh0mvwUA,2129252364,SPRING ST,THE WOO
Tutt  Heights,47 Hicks St,Brooklyn,11201,NY,-73.99331599999907,40.70021198326452,257,4.0,$,https://www.yelp.com/biz/tutt-heights-brooklyn?adjust_creative=4OloIt1kPZ2nt6Pu4NdkDA&utm_campaign=yelp_api_v3&utm_medium=api_v3_business_search&utm_source=4OloIt1kPZ2nt6Pu4NdkDA,HcWm-9ZZu2_brnuRxN5Gpg,7187227777,HICKS ST,TUTT  HEIGHTS
Park Avenue Tavern,99 Park Ave,New York,10016,NY,-73.9783999,40.75031,974,4.0,$$,https://www.yelp.com/biz/park-avenue-tavern-new-york?adjust_creative=4OloIt1kPZ2nt6Pu4NdkDA&utm_campaign=yelp_api_v3&utm_medium=api_v3_business_search&utm_source=4OloIt1kPZ2nt6Pu4NdkDA,LHxZgTddXIp_S1sL3nNG9w,2128674484,PARK AVE,PARK AVENUE TAVERN
OTB,141 Broadway,Brooklyn,11211,NY,-73.963408,40.710484,173,4.5,$$,https://www.yelp.com/biz/otb-brooklyn?adjust_creative=4OloIt1kPZ2nt6Pu4NdkDA&utm_campaign=yelp_api_v3&utm_medium=api_v3_business_search&utm_source=4OloIt1kPZ2nt6Pu4NdkDA,GpWXEpVyehmKP2WQsD_Y8g,3477631481,BROADWAY,OTB
Blue Willow 夜来湘,40 W 56th St,New York,10019,NY,-73.976546,40.76292,954,4.5,,https://www.yelp.com/biz/blue-willow-%E5%A4%9C%E6%9D%A5%E6%B9%98-new-york-2?adjust_creative=4OloIt1kPZ2nt6Pu4NdkDA&utm_campaign=yelp_api_v3&utm_medium=api_v3_business_search&utm_source=4OloIt1kPZ2nt6Pu4NdkDA,XsXLVWr1UZWVhKThNvNiaA,2122132299,W 56TH ST,BLUE WILLOW 夜来湘
Mitica,222 Franklin St,Brooklyn,11222,NY,-73.958001,40.733284,10,5.0,,https://www.yelp.com/biz/mitica-brooklyn?adjust_creative=4OloIt1kPZ2nt6Pu4NdkDA&utm_campaign=yelp_api_v3&utm_medium=api_v3_business_search&utm_source=4OloIt1kPZ2nt6Pu4NdkDA,8_AqbONdiu8MUqVkCuJKUw,nan,FRANKLIN ST,MITICA
Bacall's,220 West 44th St,New York,10036,NY,-73.98693,40.7576,429,4.0,$$$,https://www.yelp.com/biz/bacalls-new-york-2?adjust_creative=4OloIt1kPZ2nt6Pu4NdkDA&utm_campaign=yelp_api_v3&utm_medium=api_v3_business_search&utm_source=4OloIt1kPZ2nt6Pu4NdkDA,BQRfaq0U75B5EEblBZ2Aqg,2129442474,WEST 44TH ST,BACALL'S
Douska,63 Delancey St,New York,10002,NY,-73.9908998,40.7191369,211,4.5,,https://www.yelp.com/biz/douska-new-york?adjust_creative=4OloIt1kPZ2nt6Pu4NdkDA&utm_campaign=yelp_api_v3&utm_medium=api_v3_business_search&utm_source=4OloIt1kPZ2nt6Pu4NdkDA,pqqhHTz_ZpApsaWGa_zMTA,6466570908,DELANCEY ST,DOUSKA
Clinton Street Baking Company,4 Clinton St,New York,10002,NY,-73.983933,40.721128,5771,4.0,$$,https://www.yelp.com/biz/clinton-street-baking-company-new-york-5?adjust_creative=4OloIt1kPZ2nt6Pu4NdkDA&utm_campaign=yelp_api_v3&utm_medium=api_v3_business_search&utm_source=4OloIt1kPZ2nt6Pu4NdkDA,nU4XBdvxDABXqZ6CnB8Dig,6466026263,CLINTON ST,CLINTON STREET BAKING COMPANY
Tara Kitchen - Tribeca New York,253 Church St,New York,10013,NY,-74.00539,40.71791,32,4.5,,https://www.yelp.com/biz/tara-kitchen-tribeca-new-york-new-york?adjust_creative=4OloIt1kPZ2nt6Pu4NdkDA&utm_campaign=yelp_api_v3&utm_medium=api_v3_business_search&utm_source=4OloIt1kPZ2nt6Pu4NdkDA,M7KW96iW-c9FGKkkDC25OQ,2122264400,CHURCH ST,TARA KITCHEN - TRIBECA NEW YORK
Walter's,166 DeKalb Ave,Brooklyn,11217,NY,-73.973258972168,40.6894111633301,630,4.0,$$,https://www.yelp.com/biz/walters-brooklyn?adjust_creative=4OloIt1kPZ2nt6Pu4NdkDA&utm_campaign=yelp_api_v3&utm_medium=api_v3_business_search&utm_source=4OloIt1kPZ2nt6Pu4NdkDA,moaPtBNbQ5VNu2Z0ilCVGQ,7184887800,DEKALB AVE,WALTER'S
11 Tigers,225 Avenue B,New York,10009,NY,-73.97815,40.72908,144,4.0,,https://www.yelp.com/biz/11-tigers-new-york-2?adjust_creative=4OloIt1kPZ2nt6Pu4NdkDA&utm_campaign=yelp_api_v3&utm_medium=api_v3_business_search&utm_source=4OloIt1kPZ2nt6Pu4NdkDA,BaeUVrAj5f3YF1razW5bow,9292356826,AVENUE B,11 TIGERS
Golden Diner,123 Madison St,New York,10002,NY,-73.994,40.71244,433,4.5,$$,https://www.yelp.com/biz/golden-diner-new-york-2?adjust_creative=4OloIt1kPZ2nt6Pu4NdkDA&utm_campaign=yelp_api_v3&utm_medium=api_v3_business_search&utm_source=4OloIt1kPZ2nt6Pu4NdkDA,_EBQhV-UQ7NoV66uXYH0dw,9174727800,MADISON ST,GOLDEN DINER
Okonomi,150 Ainslie St,Brooklyn,11211,NY,-73.9487843,40.712622,525,4.5,$$$,https://www.yelp.com/biz/okonomi-brooklyn?adjust_creative=4OloIt1kPZ2nt6Pu4NdkDA&utm_campaign=yelp_api_v3&utm_medium=api_v3_business_search&utm_source=4OloIt1kPZ2nt6Pu4NdkDA,7OMGEtFWT6sdd9TVuoGqJQ,9292950480,AINSLIE ST,OKONOMI
Eleni's,226 3rd Ave,New York,10003,NY,-73.985085,40.736601,185,4.5,$$$,https://www.yelp.com/biz/elenis-new-york-3?adjust_creative=4OloIt1kPZ2nt6Pu4NdkDA&utm_campaign=yelp_api_v3&utm_medium=api_v3_business_search&utm_source=4OloIt1kPZ2nt6Pu4NdkDA,niODyKeyStKEut1b6FNlhQ,2129829030,3RD AVE,ELENI'S
Laser Wolf,97 Wyth Ave,Brooklyn,11249,NY,-73.958752,40.720809,228,4.5,$$$,https://www.yelp.com/biz/laser-wolf-brooklyn-2?adjust_creative=4OloIt1kPZ2nt6Pu4NdkDA&utm_campaign=yelp_api_v3&utm_medium=api_v3_business_search&utm_source=4OloIt1kPZ2nt6Pu4NdkDA,m-G7KgMjYvrZNs5Jibfx4Q,7182157150,WYTH AVE,LASER WOLF
Tiger Box,169 Park Ave,Brooklyn,11205,NY,-73.972758,40.6963379,80,4.5,$,https://www.yelp.com/biz/tiger-box-brooklyn?adjust_creative=4OloIt1kPZ2nt6Pu4NdkDA&utm_campaign=yelp_api_v3&utm_medium=api_v3_business_search&utm_source=4OloIt1kPZ2nt6Pu4NdkDA,FAALx4s7PBtCZWKFqRNPNQ,6463201177,PARK AVE,TIGER BOX
Alligator Pear,150 W 30th St,New York,10001,NY,-73.99191,40.74814,70,4.0,,https://www.yelp.com/biz/alligator-pear-new-york?adjust_creative=4OloIt1kPZ2nt6Pu4NdkDA&utm_campaign=yelp_api_v3&utm_medium=api_v3_business_search&utm_source=4OloIt1kPZ2nt6Pu4NdkDA,uLWFI7kseoU98qHiGWVgsg,6468687884,W 30TH ST,ALLIGATOR PEAR
Kōbo by Nai,202 Ave A,New York,10009,NY,-73.98093,40.72938,20,5.0,,https://www.yelp.com/biz/k%C5%8Dbo-by-nai-new-york?adjust_creative=4OloIt1kPZ2nt6Pu4NdkDA&utm_campaign=yelp_api_v3&utm_medium=api_v3_business_search&utm_source=4OloIt1kPZ2nt6Pu4NdkDA,KLNAzOpBuDspEttRsRszSA,2126771030,AVE A,KŌBO BY NAI
Kiki's,130 Division St,New York,10002,NY,-73.9918553931336,40.7144971858255,833,4.0,$$,https://www.yelp.com/biz/kikis-new-york?adjust_creative=4OloIt1kPZ2nt6Pu4NdkDA&utm_campaign=yelp_api_v3&utm_medium=api_v3_business_search&utm_source=4OloIt1kPZ2nt6Pu4NdkDA,_4Grm99JEHnDWskCHAJfUg,6468827052,DIVISION ST,KIKI'S
Pearl Street Supper Club,147 Front St,Brooklyn,11201,NY,-73.98711,40.70253,11,4.5,$$$$,https://www.yelp.com/biz/pearl-street-supper-club-brooklyn?adjust_creative=4OloIt1kPZ2nt6Pu4NdkDA&utm_campaign=yelp_api_v3&utm_medium=api_v3_business_search&utm_source=4OloIt1kPZ2nt6Pu4NdkDA,RqnPXUsRyFShLA5zhSQKFg,nan,FRONT ST,PEARL STREET SUPPER CLUB
Silver Factory,270 South 5th St,Brooklyn,11211,NY,-73.958598,40.709227,275,4.5,$$,https://www.yelp.com/biz/silver-factory-brooklyn-3?adjust_creative=4OloIt1kPZ2nt6Pu4NdkDA&utm_campaign=yelp_api_v3&utm_medium=api_v3_business_search&utm_source=4OloIt1kPZ2nt6Pu4NdkDA,L7_siqDfU4-ZA17YtA-SBg,3477253017,SOUTH 5TH ST,SILVER FACTORY
Berimbau Brazilian Kitchen,43 Carmine St,New York,10014,NY,-74.00366,40.73007,244,4.5,$$,https://www.yelp.com/biz/berimbau-brazilian-kitchen-new-york-2?adjust_creative=4OloIt1kPZ2nt6Pu4NdkDA&utm_campaign=yelp_api_v3&utm_medium=api_v3_business_search&utm_source=4OloIt1kPZ2nt6Pu4NdkDA,YPFME0go5UzDo7_q3NN2Mg,2124010021,CARMINE ST,BERIMBAU BRAZILIAN KITCHEN
Gersi,316 Court St,Brooklyn,11231,NY,-73.995711,40.683438,360,4.5,$$,https://www.yelp.com/biz/gersi-brooklyn?adjust_creative=4OloIt1kPZ2nt6Pu4NdkDA&utm_campaign=yelp_api_v3&utm_medium=api_v3_business_search&utm_source=4OloIt1kPZ2nt6Pu4NdkDA,hpRrYBbKUqv8ewFKDjbjoA,3478895077,COURT ST,GERSI
Jolene,54 Great Jones St,New York,10012,NY,-73.9921676237617,40.7267147574463,41,4.0,,https://www.yelp.com/biz/jolene-new-york?adjust_creative=4OloIt1kPZ2nt6Pu4NdkDA&utm_campaign=yelp_api_v3&utm_medium=api_v3_business_search&utm_source=4OloIt1kPZ2nt6Pu4NdkDA,5f4tRvdXT9C2lHJ0prpmsw,nan,GREAT JONES ST,JOLENE
Madre,214 Franklin St,Brooklyn,11222,NY,-73.95798,40.73311,158,4.5,$$$,https://www.yelp.com/biz/madre-brooklyn-2?adjust_creative=4OloIt1kPZ2nt6Pu4NdkDA&utm_campaign=yelp_api_v3&utm_medium=api_v3_business_search&utm_source=4OloIt1kPZ2nt6Pu4NdkDA,utM-5navObsVA5sCRHobzA,7183898700,FRANKLIN ST,MADRE
Lamonte,557 Driggs Ave,Brooklyn,11211,NY,-73.95648,40.71684,27,4.5,,https://www.yelp.com/biz/lamonte-brooklyn?adjust_creative=4OloIt1kPZ2nt6Pu4NdkDA&utm_campaign=yelp_api_v3&utm_medium=api_v3_business_search&utm_source=4OloIt1kPZ2nt6Pu4NdkDA,28EoYA9TiHANksq662_3vQ,7185763619,DRIGGS AVE,LAMONTE
The Wren,344 Bowery,New York,10012,NY,-73.9920476876,40.7263350655,623,4.0,$$,https://www.yelp.com/biz/the-wren-new-york?adjust_creative=4OloIt1kPZ2nt6Pu4NdkDA&utm_campaign=yelp_api_v3&utm_medium=api_v3_business_search&utm_source=4OloIt1kPZ2nt6Pu4NdkDA,lhEzTykkqFz92Vq2uILtyw,2123880148,BOWERY,THE WREN
El Pingüino,25 Greenpoint Ave,Brooklyn,11222,NY,-73.95978,40.7298,34,4.5,,https://www.yelp.com/biz/el-ping%C3%BCino-brooklyn?adjust_creative=4OloIt1kPZ2nt6Pu4NdkDA&utm_campaign=yelp_api_v3&utm_medium=api_v3_business_search&utm_source=4OloIt1kPZ2nt6Pu4NdkDA,vNThH1YBC0OjgzEx_AJvMw,3474639509,GREENPOINT AVE,EL PINGÜINO
Landhaus,3-99 New Dock St,New York,11201,NY,-73.9933243,40.7043648,1,4.0,,https://www.yelp.com/biz/landhaus-new-york-3?adjust_creative=4OloIt1kPZ2nt6Pu4NdkDA&utm_campaign=yelp_api_v3&utm_medium=api_v3_business_search&utm_source=4OloIt1kPZ2nt6Pu4NdkDA,n_gMJlMQCsexD0jhEE6cZw,nan,NEW DOCK ST,LANDHAUS
Cafe Mogador,101 St Marks Pl,New York,10009,NY,-73.9845085144043,40.727258767439,2136,4.0,$$,https://www.yelp.com/biz/cafe-mogador-new-york?adjust_creative=4OloIt1kPZ2nt6Pu4NdkDA&utm_campaign=yelp_api_v3&utm_medium=api_v3_business_search&utm_source=4OloIt1kPZ2nt6Pu4NdkDA,W4hobe10Fy54MKqmLaObEg,2126772226,ST MARKS PL,CAFE MOGADOR
Peaches Prime,590 Fulton St,Brooklyn,11217,NY,-73.97887,40.68777,29,4.5,,https://www.yelp.com/biz/peaches-prime-brooklyn?adjust_creative=4OloIt1kPZ2nt6Pu4NdkDA&utm_campaign=yelp_api_v3&utm_medium=api_v3_business_search&utm_source=4OloIt1kPZ2nt6Pu4NdkDA,_G5JMPOkU6IG1OKbhw3gXA,7186736014,FULTON ST,PEACHES PRIME
POST,217 E 3rd St,New York,10009,NY,-73.9821975,40.7225246,341,4.5,$$,https://www.yelp.com/biz/post-new-york-2?adjust_creative=4OloIt1kPZ2nt6Pu4NdkDA&utm_campaign=yelp_api_v3&utm_medium=api_v3_business_search&utm_source=4OloIt1kPZ2nt6Pu4NdkDA,ihplCj2HKWR7z-bBKf8Nzw,9172612613,E 3RD ST,POST
Pips,129 Atlantic Ave,Brooklyn,11201,NY,-73.995738,40.690902,38,4.0,,https://www.yelp.com/biz/pips-brooklyn-3?adjust_creative=4OloIt1kPZ2nt6Pu4NdkDA&utm_campaign=yelp_api_v3&utm_medium=api_v3_business_search&utm_source=4OloIt1kPZ2nt6Pu4NdkDA,md90Fu_96gYw1AXJ103mHQ,7188588989,ATLANTIC AVE,PIPS
Llama Inn,50 Withers St,Brooklyn,11211,NY,-73.95051,40.71672,711,4.0,$$$,https://www.yelp.com/biz/llama-inn-brooklyn?adjust_creative=4OloIt1kPZ2nt6Pu4NdkDA&utm_campaign=yelp_api_v3&utm_medium=api_v3_business_search&utm_source=4OloIt1kPZ2nt6Pu4NdkDA,BBPiBgyMmLX5RzaKCB0AeQ,7183873434,WITHERS ST,LLAMA INN
Arden,788 Franklin Ave,Brooklyn,11238,NY,-73.957878,40.6717311853659,64,5.0,,https://www.yelp.com/biz/arden-brooklyn?adjust_creative=4OloIt1kPZ2nt6Pu4NdkDA&utm_campaign=yelp_api_v3&utm_medium=api_v3_business_search&utm_source=4OloIt1kPZ2nt6Pu4NdkDA,RNRLQXg_P2cGxLEMVlKZQA,7184843266,FRANKLIN AVE,ARDEN
Twenty Three Grand,23 Grand St,New York,10013,NY,-74.00491,40.72279,36,4.0,,https://www.yelp.com/biz/twenty-three-grand-new-york?adjust_creative=4OloIt1kPZ2nt6Pu4NdkDA&utm_campaign=yelp_api_v3&utm_medium=api_v3_business_search&utm_source=4OloIt1kPZ2nt6Pu4NdkDA,nMNHZ8bbobCrs6VC9zCm8Q,2122019117,GRAND ST,TWENTY THREE GRAND
Bosco,169 Bleecker St,New York,10012,NY,-74.00025,40.72882,52,4.0,,https://www.yelp.com/biz/bosco-new-york?adjust_creative=4OloIt1kPZ2nt6Pu4NdkDA&utm_campaign=yelp_api_v3&utm_medium=api_v3_business_search&utm_source=4OloIt1kPZ2nt6Pu4NdkDA,1y900NbcusWxwVb01RSdcg,nan,BLEECKER ST,BOSCO
Tsuta,22 Old Fulton St,Brooklyn,11201,NY,-73.9940819,40.702549,77,3.0,,https://www.yelp.com/biz/tsuta-brooklyn-3?adjust_creative=4OloIt1kPZ2nt6Pu4NdkDA&utm_campaign=yelp_api_v3&utm_medium=api_v3_business_search&utm_source=4OloIt1kPZ2nt6Pu4NdkDA,JqrnqiYg6Ak_yMS-tO2TAw,7185763435,OLD FULTON ST,TSUTA
Blue Ribbon Brasserie - SoHo,97 Sullivan St,New York,10012,NY,-74.003027,40.725456,1010,4.5,$$$,https://www.yelp.com/biz/blue-ribbon-brasserie-soho-new-york?adjust_creative=4OloIt1kPZ2nt6Pu4NdkDA&utm_campaign=yelp_api_v3&utm_medium=api_v3_business_search&utm_source=4OloIt1kPZ2nt6Pu4NdkDA,txSykTj5nbwmpiVNoK_Dyg,2122740404,SULLIVAN ST,BLUE RIBBON BRASSERIE - SOHO
Fat Rabbit,245 DeKalb Ave,Brooklyn,11205,NY,-73.9694734,40.68964917461164,13,4.5,,https://www.yelp.com/biz/fat-rabbit-brooklyn?adjust_creative=4OloIt1kPZ2nt6Pu4NdkDA&utm_campaign=yelp_api_v3&utm_medium=api_v3_business_search&utm_source=4OloIt1kPZ2nt6Pu4NdkDA,92dWW-9ConZAPCshPlQTrw,nan,DEKALB AVE,FAT RABBIT
Fonda Tribeca,139 Duane St,New York,10013,NY,-74.00783,40.71645,39,4.5,$$$,https://www.yelp.com/biz/fonda-tribeca-new-york-4?adjust_creative=4OloIt1kPZ2nt6Pu4NdkDA&utm_campaign=yelp_api_v3&utm_medium=api_v3_business_search&utm_source=4OloIt1kPZ2nt6Pu4NdkDA,2kkjzgLwKHFmLAfR86kE3Q,9172616950,DUANE ST,FONDA TRIBECA
Lingo,27 Greenpoint Ave,Brooklyn,11222,NY,-73.95971,40.7298,34,4.5,,https://www.yelp.com/biz/lingo-brooklyn?adjust_creative=4OloIt1kPZ2nt6Pu4NdkDA&utm_campaign=yelp_api_v3&utm_medium=api_v3_business_search&utm_source=4OloIt1kPZ2nt6Pu4NdkDA,72FarxYcWbvPfHC5IitJKg,3475294584,GREENPOINT AVE,LINGO
Hakata Tonton,35 W 35th St,New York,10001,NY,-73.985719,40.749981,167,4.0,,https://www.yelp.com/biz/hakata-tonton-new-york-7?adjust_creative=4OloIt1kPZ2nt6Pu4NdkDA&utm_campaign=yelp_api_v3&utm_medium=api_v3_business_search&utm_source=4OloIt1kPZ2nt6Pu4NdkDA,_F29-1dkiBmDPSaKQ9_O0Q,9172616536,W 35TH ST,HAKATA TONTON
Izakaya MEW,53 W 35th St,New York,10001,NY,-73.9863203465939,40.750148,2860,4.5,$$,https://www.yelp.com/biz/izakaya-mew-new-york-3?adjust_creative=4OloIt1kPZ2nt6Pu4NdkDA&utm_campaign=yelp_api_v3&utm_medium=api_v3_business_search&utm_source=4OloIt1kPZ2nt6Pu4NdkDA,klAhw3xLQi9GF1tf_HnS7w,6463689384,W 35TH ST,IZAKAYA MEW
Kokomo,65 Kent Ave,Brooklyn,11249,NY,-73.959708,40.721999,811,4.0,$$$,https://www.yelp.com/biz/kokomo-brooklyn-3?adjust_creative=4OloIt1kPZ2nt6Pu4NdkDA&utm_campaign=yelp_api_v3&utm_medium=api_v3_business_search&utm_source=4OloIt1kPZ2nt6Pu4NdkDA,0czWwSVOVjVQaefbL4Zq-g,3477991312,KENT AVE,KOKOMO
Felice - Montague,84 Montague St,Brooklyn,11201,NY,-73.9961,40.69517,67,4.0,,https://www.yelp.com/biz/felice-montague-brooklyn-3?adjust_creative=4OloIt1kPZ2nt6Pu4NdkDA&utm_campaign=yelp_api_v3&utm_medium=api_v3_business_search&utm_source=4OloIt1kPZ2nt6Pu4NdkDA,EviCtput3aPEbHEVS4Ahuw,7184759877,MONTAGUE ST,FELICE - MONTAGUE
Sanmiwago,98 Mott St,New York,10013,NY,-73.9972861,40.71718663968627,67,4.5,,https://www.yelp.com/biz/sanmiwago-new-york?adjust_creative=4OloIt1kPZ2nt6Pu4NdkDA&utm_campaign=yelp_api_v3&utm_medium=api_v3_business_search&utm_source=4OloIt1kPZ2nt6Pu4NdkDA,6aOITRm4GrNbAJ9Li1J_yQ,nan,MOTT ST,SANMIWAGO
Beauty & Essex,146 Essex St,New York City,10002,NY,-73.98686057623863,40.720434786101286,3866,4.0,$$$,https://www.yelp.com/biz/beauty-and-essex-new-york-city?adjust_creative=4OloIt1kPZ2nt6Pu4NdkDA&utm_campaign=yelp_api_v3&utm_medium=api_v3_business_search&utm_source=4OloIt1kPZ2nt6Pu4NdkDA,pfmAcS-g6SiNG0KlLvrqnA,2126140146,ESSEX ST,BEAUTY & ESSEX
5ive Spice,363 3rd Ave,New York,10016,NY,-73.9812869,40.74084302672611,42,4.5,$$,https://www.yelp.com/biz/5ive-spice-new-york-4?adjust_creative=4OloIt1kPZ2nt6Pu4NdkDA&utm_campaign=yelp_api_v3&utm_medium=api_v3_business_search&utm_source=4OloIt1kPZ2nt6Pu4NdkDA,ntiDPLkWm6GDLkYh0d2tBw,nan,3RD AVE,5IVE SPICE
La Pecora Bianca,1133 Broadway,New York,10010,NY,-73.9892,40.74358,1077,4.0,$$$,https://www.yelp.com/biz/la-pecora-bianca-new-york?adjust_creative=4OloIt1kPZ2nt6Pu4NdkDA&utm_campaign=yelp_api_v3&utm_medium=api_v3_business_search&utm_source=4OloIt1kPZ2nt6Pu4NdkDA,HiNUBUR1hFwScd_OvVLQAg,2124989696,BROADWAY,LA PECORA BIANCA
tán,209 E 49th St,New York,10017,NY,-73.97048579999999,40.75502324994503,85,4.0,,https://www.yelp.com/biz/t%C3%A1n-new-york-3?adjust_creative=4OloIt1kPZ2nt6Pu4NdkDA&utm_campaign=yelp_api_v3&utm_medium=api_v3_business_search&utm_source=4OloIt1kPZ2nt6Pu4NdkDA,0ksKKrgHt-6xCCHfTlLcoA,9173882248,E 49TH ST,TÁN
Cafe Alula,252 Franklin St,Brooklyn,11222,NY,-73.95822,40.73461,87,4.5,,https://www.yelp.com/biz/cafe-alula-brooklyn?adjust_creative=4OloIt1kPZ2nt6Pu4NdkDA&utm_campaign=yelp_api_v3&utm_medium=api_v3_business_search&utm_source=4OloIt1kPZ2nt6Pu4NdkDA,4taegd-dJm0xGJOmqG5DtQ,7183166161,FRANKLIN ST,CAFE ALULA
Lilia,567 Union Ave,Brooklyn,11211,NY,-73.95236,40.71757,1212,4.0,$$$,https://www.yelp.com/biz/lilia-brooklyn?adjust_creative=4OloIt1kPZ2nt6Pu4NdkDA&utm_campaign=yelp_api_v3&utm_medium=api_v3_business_search&utm_source=4OloIt1kPZ2nt6Pu4NdkDA,zwOAiVT4pAmpNGXzj-t5MA,7185763095,UNION AVE,LILIA
Le Crocodile,80 Wythe Ave,Brooklyn,11249,NY,-73.957873,40.72191,232,4.5,,https://www.yelp.com/biz/le-crocodile-brooklyn?adjust_creative=4OloIt1kPZ2nt6Pu4NdkDA&utm_campaign=yelp_api_v3&utm_medium=api_v3_business_search&utm_source=4OloIt1kPZ2nt6Pu4NdkDA,VpEy7E9fij06n7BRrzvEaw,7184608004,WYTHE AVE,LE CROCODILE
Xu's Public House,15 Union Square W,New York,10003,NY,-73.9917,40.73589,150,4.0,$$$,https://www.yelp.com/biz/xus-public-house-new-york-2?adjust_creative=4OloIt1kPZ2nt6Pu4NdkDA&utm_campaign=yelp_api_v3&utm_medium=api_v3_business_search&utm_source=4OloIt1kPZ2nt6Pu4NdkDA,VbFYau70iG_s6UNFwYtGVQ,2129019971,UNION SQUARE W,XU'S PUBLIC HOUSE
WarrenPeace,77 Warren St,New York,10007,NY,-74.010284,40.715022,25,4.5,,https://www.yelp.com/biz/warrenpeace-new-york?adjust_creative=4OloIt1kPZ2nt6Pu4NdkDA&utm_campaign=yelp_api_v3&utm_medium=api_v3_business_search&utm_source=4OloIt1kPZ2nt6Pu4NdkDA,P-RaGy9h2tH_IRXcDv7mmg,8455925334,WARREN ST,WARRENPEACE
Two Hands,74 Bleecker St,New York,10012,NY,-73.9956844,40.726306014451026,74,4.0,,https://www.yelp.com/biz/two-hands-new-york-5?adjust_creative=4OloIt1kPZ2nt6Pu4NdkDA&utm_campaign=yelp_api_v3&utm_medium=api_v3_business_search&utm_source=4OloIt1kPZ2nt6Pu4NdkDA,_03n3VP-tujID_SJbeEDeA,6466697183,BLEECKER ST,TWO HANDS
Emily - West Village,35 Downing St,New York,10014,NY,-74.00386306706551,40.72937501564907,986,4.0,$$,https://www.yelp.com/biz/emily-west-village-new-york?adjust_creative=4OloIt1kPZ2nt6Pu4NdkDA&utm_campaign=yelp_api_v3&utm_medium=api_v3_business_search&utm_source=4OloIt1kPZ2nt6Pu4NdkDA,m86CNmYThtzzWB3nPnrhbg,9179356434,DOWNING ST,EMILY - WEST VILLAGE
Mezcali,83 Maiden Ln,New York,10038,NY,-74.00748,40.70745,120,4.0,$$,https://www.yelp.com/biz/mezcali-new-york?adjust_creative=4OloIt1kPZ2nt6Pu4NdkDA&utm_campaign=yelp_api_v3&utm_medium=api_v3_business_search&utm_source=4OloIt1kPZ2nt6Pu4NdkDA,2-yiGN-eDKPmxPvc55GPZg,9174095881,MAIDEN LN,MEZCALI
Gran Electrica,5 Front St,Brooklyn,11201,NY,-73.99314,40.7027,534,3.5,$$,https://www.yelp.com/biz/gran-electrica-brooklyn-3?adjust_creative=4OloIt1kPZ2nt6Pu4NdkDA&utm_campaign=yelp_api_v3&utm_medium=api_v3_business_search&utm_source=4OloIt1kPZ2nt6Pu4NdkDA,f7g3GhoQs9nQVTJEL2p48Q,7188522700,FRONT ST,GRAN ELECTRICA
Manousheh - Bleecker,193 Bleecker St,New York,10012,NY,-74.001275,40.729511,516,4.5,$,https://www.yelp.com/biz/manousheh-bleecker-new-york-8?adjust_creative=4OloIt1kPZ2nt6Pu4NdkDA&utm_campaign=yelp_api_v3&utm_medium=api_v3_business_search&utm_source=4OloIt1kPZ2nt6Pu4NdkDA,VSPkVw9gSQx-5v4A6aC_YA,3479715778,BLEECKER ST,MANOUSHEH - BLEECKER
OH BOY,84 Havemeyer St,Brooklyn,11211,NY,-73.956208,40.713983,23,4.0,,https://www.yelp.com/biz/oh-boy-brooklyn?adjust_creative=4OloIt1kPZ2nt6Pu4NdkDA&utm_campaign=yelp_api_v3&utm_medium=api_v3_business_search&utm_source=4OloIt1kPZ2nt6Pu4NdkDA,VmQ3rfb-eZgfzIe-_K_HOA,3477253138,HAVEMEYER ST,OH BOY
SPES,413 E 12th St,New York,10009,NY,-73.98274,40.72979,39,4.0,,https://www.yelp.com/biz/spes-new-york?adjust_creative=4OloIt1kPZ2nt6Pu4NdkDA&utm_campaign=yelp_api_v3&utm_medium=api_v3_business_search&utm_source=4OloIt1kPZ2nt6Pu4NdkDA,SCQ9B9jxqNHvJKQ-RagxaA,nan,E 12TH ST,SPES
Tuk Tuk,4906 Vernon Blvd,Long Island City,11101,NY,-73.954254,40.743232,775,4.0,$$,https://www.yelp.com/biz/tuk-tuk-long-island-city?adjust_creative=4OloIt1kPZ2nt6Pu4NdkDA&utm_campaign=yelp_api_v3&utm_medium=api_v3_business_search&utm_source=4OloIt1kPZ2nt6Pu4NdkDA,f7jZvRH-h76F4emzvKytaQ,7184725598,VERNON BLVD,TUK TUK
Sam Muk,65-25 Roosevelt Ave,Woodside,11377,NY,-73.89817,40.74641,17,4.5,,https://www.yelp.com/biz/sam-muk-woodside?adjust_creative=4OloIt1kPZ2nt6Pu4NdkDA&utm_campaign=yelp_api_v3&utm_medium=api_v3_business_search&utm_source=4OloIt1kPZ2nt6Pu4NdkDA,siltHv2lcAuzOdazxq_17g,3472423577,ROOSEVELT AVE,SAM MUK
The Bazaar By José Andrés,35 W 28th St,New York,10001,NY,-73.98903,40.74557,12,4.0,,https://www.yelp.com/biz/the-bazaar-by-jos%C3%A9-andr%C3%A9s-new-york?adjust_creative=4OloIt1kPZ2nt6Pu4NdkDA&utm_campaign=yelp_api_v3&utm_medium=api_v3_business_search&utm_source=4OloIt1kPZ2nt6Pu4NdkDA,xUr3Mc_g-cwTBkVunTifPA,2128049070,W 28TH ST,THE BAZAAR BY JOSÉ ANDRÉS
Saint Julivert,264 Clinton St,Brooklyn,11201,NY,-73.99565,40.68787,58,4.5,,https://www.yelp.com/biz/saint-julivert-brooklyn?adjust_creative=4OloIt1kPZ2nt6Pu4NdkDA&utm_campaign=yelp_api_v3&utm_medium=api_v3_business_search&utm_source=4OloIt1kPZ2nt6Pu4NdkDA,lOSerKI9Xh4tR5I4YUw9kw,3479873710,CLINTON ST,SAINT JULIVERT
Brooklyn Noosh,988 Atlantic Ave,Brooklyn,11238,NY,-73.961223,40.680244,12,4.5,,https://www.yelp.com/biz/brooklyn-noosh-brooklyn?adjust_creative=4OloIt1kPZ2nt6Pu4NdkDA&utm_campaign=yelp_api_v3&utm_medium=api_v3_business_search&utm_source=4OloIt1kPZ2nt6Pu4NdkDA,XjH8rjZZSplZ6iq3hqfL-w,3474068306,ATLANTIC AVE,BROOKLYN NOOSH
Chama Mama - New York,149 W 14th St,New York,10011,NY,-73.99892,40.7384,686,4.5,$$,https://www.yelp.com/biz/chama-mama-new-york-new-york?adjust_creative=4OloIt1kPZ2nt6Pu4NdkDA&utm_campaign=yelp_api_v3&utm_medium=api_v3_business_search&utm_source=4OloIt1kPZ2nt6Pu4NdkDA,cTE0e96GYzet799EJeStoQ,6464389007,W 14TH ST,CHAMA MAMA - NEW YORK
bōm,17 W 19th St,New York,10011,NY,-73.99247,40.73966,11,5.0,,https://www.yelp.com/biz/b%C5%8Dm-new-york-3?adjust_creative=4OloIt1kPZ2nt6Pu4NdkDA&utm_campaign=yelp_api_v3&utm_medium=api_v3_business_search&utm_source=4OloIt1kPZ2nt6Pu4NdkDA,6GAB0Rn6eBqCUO9Tx9BNgQ,2122561368,W 19TH ST,BŌM
Balaboosta,611 Hudson St,New York,10014,NY,-74.00584,40.73769,104,4.0,,https://www.yelp.com/biz/balaboosta-new-york-3?adjust_creative=4OloIt1kPZ2nt6Pu4NdkDA&utm_campaign=yelp_api_v3&utm_medium=api_v3_business_search&utm_source=4OloIt1kPZ2nt6Pu4NdkDA,CKDJ5EnccjRvvVF3csTn6Q,2123901545,HUDSON ST,BALABOOSTA
Endswell Bar & Bistro,773 Fulton St,Brooklyn,11217,NY,-73.97377,40.68618,127,4.5,$$,https://www.yelp.com/biz/endswell-bar-and-bistro-brooklyn?adjust_creative=4OloIt1kPZ2nt6Pu4NdkDA&utm_campaign=yelp_api_v3&utm_medium=api_v3_business_search&utm_source=4OloIt1kPZ2nt6Pu4NdkDA,PszZvrDqzgPpl6SQuk3K9Q,nan,FULTON ST,ENDSWELL BAR & BISTRO
Cecchi's,105 W 13th St,New York,10011,NY,-73.9976575,40.73697528161047,15,4.5,,https://www.yelp.com/biz/cecchis-new-york-2?adjust_creative=4OloIt1kPZ2nt6Pu4NdkDA&utm_campaign=yelp_api_v3&utm_medium=api_v3_business_search&utm_source=4OloIt1kPZ2nt6Pu4NdkDA,DY9pYV6pDlEejFxhvGrmTA,2129316335,W 13TH ST,CECCHI'S
Kebaya,20 E 17th St,New York,10003,NY,-73.99120666086674,40.737259886794405,40,4.0,,https://www.yelp.com/biz/kebaya-new-york?adjust_creative=4OloIt1kPZ2nt6Pu4NdkDA&utm_campaign=yelp_api_v3&utm_medium=api_v3_business_search&utm_source=4OloIt1kPZ2nt6Pu4NdkDA,vEvOcLuD99EMWJghbc_9ag,2126410401,E 17TH ST,KEBAYA
Betong - Khao Man Gai,261 Canal St,New York,10013,NY,-74.000702,40.718985,40,4.5,$$,https://www.yelp.com/biz/betong-khao-man-gai-new-york?adjust_creative=4OloIt1kPZ2nt6Pu4NdkDA&utm_campaign=yelp_api_v3&utm_medium=api_v3_business_search&utm_source=4OloIt1kPZ2nt6Pu4NdkDA,GIlunJr5LNcU1mHCchiKPA,3473868032,CANAL ST,BETONG - KHAO MAN GAI
Baby Blues Luncheonette,97 Montrose Ave,Brooklyn,11206,NY,-73.945808,40.707315,35,4.0,,https://www.yelp.com/biz/baby-blues-luncheonette-brooklyn?adjust_creative=4OloIt1kPZ2nt6Pu4NdkDA&utm_campaign=yelp_api_v3&utm_medium=api_v3_business_search&utm_source=4OloIt1kPZ2nt6Pu4NdkDA,QzjF7OVV-WiJH1dILFrzgg,nan,MONTROSE AVE,BABY BLUES LUNCHEONETTE
The Cactus Shop,231 Kent Ave,Brooklyn,11249,NY,-73.96543,40.71672,60,4.5,$$,https://www.yelp.com/biz/the-cactus-shop-brooklyn?adjust_creative=4OloIt1kPZ2nt6Pu4NdkDA&utm_campaign=yelp_api_v3&utm_medium=api_v3_business_search&utm_source=4OloIt1kPZ2nt6Pu4NdkDA,j9a6xr78a6tPBblKvvBJew,3477498474,KENT AVE,THE CACTUS SHOP
Eyval,25 Bogart St,Brooklyn,11206,NY,-73.93309,40.70413,87,4.5,$$$,https://www.yelp.com/biz/eyval-brooklyn?adjust_creative=4OloIt1kPZ2nt6Pu4NdkDA&utm_campaign=yelp_api_v3&utm_medium=api_v3_business_search&utm_source=4OloIt1kPZ2nt6Pu4NdkDA,446l_JghlLeekhd7_blMag,9293390438,BOGART ST,EYVAL
Anto,243 E 58th St,New York,10022,NY,-73.965128,40.760354,28,4.5,,https://www.yelp.com/biz/anto-new-york-2?adjust_creative=4OloIt1kPZ2nt6Pu4NdkDA&utm_campaign=yelp_api_v3&utm_medium=api_v3_business_search&utm_source=4OloIt1kPZ2nt6Pu4NdkDA,QxDdGjCKz7WZcQ7sBmXcuw,2129708888,E 58TH ST,ANTO
Little Collins,708 3rd Ave,New York,10017,NY,-73.97353,40.75233,1131,4.5,$$,https://www.yelp.com/biz/little-collins-new-york-3?adjust_creative=4OloIt1kPZ2nt6Pu4NdkDA&utm_campaign=yelp_api_v3&utm_medium=api_v3_business_search&utm_source=4OloIt1kPZ2nt6Pu4NdkDA,1aD88qNRb08LGBkl84GQTA,2123081969,3RD AVE,LITTLE COLLINS
Roberta's,261 Moore St,Brooklyn,11206,NY,-73.93399,40.70493,3314,4.0,$$,https://www.yelp.com/biz/robertas-brooklyn-2?adjust_creative=4OloIt1kPZ2nt6Pu4NdkDA&utm_campaign=yelp_api_v3&utm_medium=api_v3_business_search&utm_source=4OloIt1kPZ2nt6Pu4NdkDA,FhXjAc6nKLf414KxYujUHw,7184171118,MOORE ST,ROBERTA'S
ACRE,64 Meserole Ave,Brooklyn,11222,NY,-73.95471,40.72633,115,4.5,$$,https://www.yelp.com/biz/acre-brooklyn?adjust_creative=4OloIt1kPZ2nt6Pu4NdkDA&utm_campaign=yelp_api_v3&utm_medium=api_v3_business_search&utm_source=4OloIt1kPZ2nt6Pu4NdkDA,VdAVjghEq_Zl-DDte0mjrw,7189549074,MESEROLE AVE,ACRE
Locanda Verde,377 Greenwich St,New York,10013,NY,-74.010039072422,40.7198601300801,1838,4.0,$$$,https://www.yelp.com/biz/locanda-verde-new-york?adjust_creative=4OloIt1kPZ2nt6Pu4NdkDA&utm_campaign=yelp_api_v3&utm_medium=api_v3_business_search&utm_source=4OloIt1kPZ2nt6Pu4NdkDA,pk89jzL1RsE9U0thf_z6tw,2129253797,GREENWICH ST,LOCANDA VERDE
Café Mish Mosh,50 Bowery,New York,10013,NY,-73.9967305,40.71593865237843,12,4.5,,https://www.yelp.com/biz/caf%C3%A9-mish-mosh-new-york?adjust_creative=4OloIt1kPZ2nt6Pu4NdkDA&utm_campaign=yelp_api_v3&utm_medium=api_v3_business_search&utm_source=4OloIt1kPZ2nt6Pu4NdkDA,gSgfaUH36TarRiV9j3f56Q,2126004325,BOWERY,CAFÉ MISH MOSH
Olle,11 E 30th St,New York,10016,NY,-73.9855,40.74564,124,4.5,$$$,https://www.yelp.com/biz/olle-new-york?adjust_creative=4OloIt1kPZ2nt6Pu4NdkDA&utm_campaign=yelp_api_v3&utm_medium=api_v3_business_search&utm_source=4OloIt1kPZ2nt6Pu4NdkDA,V95hnN4N2vw1ph2mDxIA7w,6463689922,E 30TH ST,OLLE
Top Thai Greenwich,235 Sullivan St,New York,10012,NY,-73.999392,40.729771,1888,4.5,$$,https://www.yelp.com/biz/top-thai-greenwich-new-york?adjust_creative=4OloIt1kPZ2nt6Pu4NdkDA&utm_campaign=yelp_api_v3&utm_medium=api_v3_business_search&utm_source=4OloIt1kPZ2nt6Pu4NdkDA,wGFSTTB6b4MHJJUzBnVJeg,6467264418,SULLIVAN ST,TOP THAI GREENWICH
Yemen chuanchuan 爺们串串 爷们串串,105 W27 St,New York,10001,NY,-73.99132,40.745733,18,4.0,,https://www.yelp.com/biz/yemen-chuanchuan-%E7%88%BA%E4%BB%AC%E4%B8%B2%E4%B8%B2-%E7%88%B7%E4%BB%AC%E4%B8%B2%E4%B8%B2-new-york?adjust_creative=4OloIt1kPZ2nt6Pu4NdkDA&utm_campaign=yelp_api_v3&utm_medium=api_v3_business_search&utm_source=4OloIt1kPZ2nt6Pu4NdkDA,M-4J09S14mPsH1EJrnR1Og,6464764935,W27 ST,YEMEN CHUANCHUAN 爺们串串 爷们串串
Las Santas,572 Fulton St,Brooklyn,11217,NY,-73.97953,40.6882,335,4.0,$$,https://www.yelp.com/biz/las-santas-brooklyn-2?adjust_creative=4OloIt1kPZ2nt6Pu4NdkDA&utm_campaign=yelp_api_v3&utm_medium=api_v3_business_search&utm_source=4OloIt1kPZ2nt6Pu4NdkDA,4pj4ol7lXiytDD-BTKe3kg,7182225919,FULTON ST,LAS SANTAS
Sam Sunny,517 2nd Ave,New York,10016,NY,-73.97846,40.74156,178,4.5,$$$,https://www.yelp.com/biz/sam-sunny-new-york?adjust_creative=4OloIt1kPZ2nt6Pu4NdkDA&utm_campaign=yelp_api_v3&utm_medium=api_v3_business_search&utm_source=4OloIt1kPZ2nt6Pu4NdkDA,vpkUUhs6dCnGeD-Vz0D29Q,2128371044,2ND AVE,SAM SUNNY
Jajaja Mexicana,450 W 33rd St,New York,10001,NY,-73.99981519174997,40.75264793272132,64,4.5,,https://www.yelp.com/biz/jajaja-mexicana-new-york?adjust_creative=4OloIt1kPZ2nt6Pu4NdkDA&utm_campaign=yelp_api_v3&utm_medium=api_v3_business_search&utm_source=4OloIt1kPZ2nt6Pu4NdkDA,U6l20gH8YuOJMO8vF6_Ufw,9177228419,W 33RD ST,JAJAJA MEXICANA
NAYA - FiDi,One New York Plz,New York,10004,NY,-74.012064,40.702127,186,4.5,$,https://www.yelp.com/biz/naya-fidi-new-york-4?adjust_creative=4OloIt1kPZ2nt6Pu4NdkDA&utm_campaign=yelp_api_v3&utm_medium=api_v3_business_search&utm_source=4OloIt1kPZ2nt6Pu4NdkDA,R3fMQtSL0MrMUyW_Q32oNw,2127608888,NEW YORK PLZ,NAYA - FIDI
Nish Nush,88 Reade St,New York,10013,NY,-74.007695,40.715688,817,4.5,$$,https://www.yelp.com/biz/nish-nush-new-york?adjust_creative=4OloIt1kPZ2nt6Pu4NdkDA&utm_campaign=yelp_api_v3&utm_medium=api_v3_business_search&utm_source=4OloIt1kPZ2nt6Pu4NdkDA,d8zSYpArh4oXpxeJWNA4Pg,2129641318,READE ST,NISH NUSH
Port Sa'id,350 Hudson St,New York,10014,NY,-74.0067845,40.72767644691845,17,4.0,,https://www.yelp.com/biz/port-said-new-york?adjust_creative=4OloIt1kPZ2nt6Pu4NdkDA&utm_campaign=yelp_api_v3&utm_medium=api_v3_business_search&utm_source=4OloIt1kPZ2nt6Pu4NdkDA,G5NGf9U3B7uRZREhdt7VYg,2122560841,HUDSON ST,PORT SA'ID
The Orchard Room,120 Orchard St,New York,10002,NY,-73.989322,40.719365,18,4.5,,https://www.yelp.com/biz/the-orchard-room-new-york?adjust_creative=4OloIt1kPZ2nt6Pu4NdkDA&utm_campaign=yelp_api_v3&utm_medium=api_v3_business_search&utm_source=4OloIt1kPZ2nt6Pu4NdkDA,rpIMYwZhRJZKl0-AUgUrjw,6467209791,ORCHARD ST,THE ORCHARD ROOM
June,231 Court St,Brooklyn,11201,NY,-73.99388911165558,40.68606512542637,209,4.0,$$,https://www.yelp.com/biz/june-brooklyn-3?adjust_creative=4OloIt1kPZ2nt6Pu4NdkDA&utm_campaign=yelp_api_v3&utm_medium=api_v3_business_search&utm_source=4OloIt1kPZ2nt6Pu4NdkDA,OsA5iRphHwPlYNhdddvBng,9179090434,COURT ST,JUNE
Vanessa's Dumpling House,118A Eldridge St,New York,10002,NY,-73.9917399,40.71839,2841,4.0,$,https://www.yelp.com/biz/vanessas-dumpling-house-new-york-2?adjust_creative=4OloIt1kPZ2nt6Pu4NdkDA&utm_campaign=yelp_api_v3&utm_medium=api_v3_business_search&utm_source=4OloIt1kPZ2nt6Pu4NdkDA,IhSVn0TaX8xXb3wcQ-fgcA,2126258008,ELDRIDGE ST,VANESSA'S DUMPLING HOUSE
Dinner Party,86 S Portland Ave,Brooklyn,11217,NY,-73.97469,40.68692,33,4.5,,https://www.yelp.com/biz/dinner-party-brooklyn?adjust_creative=4OloIt1kPZ2nt6Pu4NdkDA&utm_campaign=yelp_api_v3&utm_medium=api_v3_business_search&utm_source=4OloIt1kPZ2nt6Pu4NdkDA,yGFQFm3O9vCsKTVpvmDuGg,3474639173,S PORTLAND AVE,DINNER PARTY
Chino Grande,253 Grand St,Brooklyn,11211,NY,-73.95855296810493,40.71350664203596,28,4.5,,https://www.yelp.com/biz/chino-grande-brooklyn-2?adjust_creative=4OloIt1kPZ2nt6Pu4NdkDA&utm_campaign=yelp_api_v3&utm_medium=api_v3_business_search&utm_source=4OloIt1kPZ2nt6Pu4NdkDA,XQiIGgSjx3wIxvvzOZP9Cw,9179090466,GRAND ST,CHINO GRANDE
Mr. Sun,48 W 48th St,New York,10036,NY,-73.98026,40.75809,243,4.5,$$,https://www.yelp.com/biz/mr-sun-new-york?adjust_creative=4OloIt1kPZ2nt6Pu4NdkDA&utm_campaign=yelp_api_v3&utm_medium=api_v3_business_search&utm_source=4OloIt1kPZ2nt6Pu4NdkDA,BNaveJmi-OUGKG9sRfrIhA,7183169811,W 48TH ST,MR. SUN
l’abeille à côté ,412 Greenwich St,New York,10013,NY,-74.00996679066863,40.72207992053536,1,5.0,,https://www.yelp.com/biz/l-abeille-%C3%A0-c%C3%B4t%C3%A9-new-york-2?adjust_creative=4OloIt1kPZ2nt6Pu4NdkDA&utm_campaign=yelp_api_v3&utm_medium=api_v3_business_search&utm_source=4OloIt1kPZ2nt6Pu4NdkDA,F4iMhTJ5E5bgc7yCg-PfqQ,2125423897,GREENWICH ST,L’ABEILLE À CÔTÉ 
American Brass,2-01 50th Ave,Long Island City,11109,NY,-73.95849299999999,40.7439708,360,4.5,$$$,https://www.yelp.com/biz/american-brass-long-island-city-3?adjust_creative=4OloIt1kPZ2nt6Pu4NdkDA&utm_campaign=yelp_api_v3&utm_medium=api_v3_business_search&utm_source=4OloIt1kPZ2nt6Pu4NdkDA,z0lX40tXQxOHlU26VhLATA,7188061106,50TH AVE,AMERICAN BRASS
Gordon Ramsay Fish & Chips,1500 Broadway,New York,10036,NY,-73.98567129999999,40.75680399993007,171,4.0,$$,https://www.yelp.com/biz/gordon-ramsay-fish-and-chips-new-york-4?adjust_creative=4OloIt1kPZ2nt6Pu4NdkDA&utm_campaign=yelp_api_v3&utm_medium=api_v3_business_search&utm_source=4OloIt1kPZ2nt6Pu4NdkDA,0jpfuQhu38nnP4kMMxJeJg,6465403560,BROADWAY,GORDON RAMSAY FISH & CHIPS
Bacàn,79 Grand St,Brooklyn,11249,NY,-73.96414879999999,40.715855693840986,45,4.0,,https://www.yelp.com/biz/bac%C3%A0n-brooklyn?adjust_creative=4OloIt1kPZ2nt6Pu4NdkDA&utm_campaign=yelp_api_v3&utm_medium=api_v3_business_search&utm_source=4OloIt1kPZ2nt6Pu4NdkDA,v8G2Tik6eXhS63Es_4sveA,7183881999,GRAND ST,BACÀN
Fong On,81 Division St,New York,10002,NY,-73.99370557235935,40.7141678,269,4.5,$,https://www.yelp.com/biz/fong-on-new-york?adjust_creative=4OloIt1kPZ2nt6Pu4NdkDA&utm_campaign=yelp_api_v3&utm_medium=api_v3_business_search&utm_source=4OloIt1kPZ2nt6Pu4NdkDA,iKW9zBGWfE9CM6MfK0UtjA,9172617222,DIVISION ST,FONG ON
Tradisyon,790 9th Ave,New York,10019,NY,-73.987537,40.76491,261,4.5,$$,https://www.yelp.com/biz/tradisyon-new-york-2?adjust_creative=4OloIt1kPZ2nt6Pu4NdkDA&utm_campaign=yelp_api_v3&utm_medium=api_v3_business_search&utm_source=4OloIt1kPZ2nt6Pu4NdkDA,9mWw-sK4RjSPYRHQN_S9ZQ,6468666900,9TH AVE,TRADISYON
The Consulate - Midtown,44 W 56th St,New York,10019,NY,-73.97661,40.76309,45,4.5,,https://www.yelp.com/biz/the-consulate-midtown-new-york?adjust_creative=4OloIt1kPZ2nt6Pu4NdkDA&utm_campaign=yelp_api_v3&utm_medium=api_v3_business_search&utm_source=4OloIt1kPZ2nt6Pu4NdkDA,11Nbr2oTRB5Uqi36L8if8g,6468501100,W 56TH ST,THE CONSULATE - MIDTOWN
shabushabu Mayumon,115 Division St,New York,10002,NY,-73.99205,40.71434,88,4.5,,https://www.yelp.com/biz/shabushabu-mayumon-new-york-5?adjust_creative=4OloIt1kPZ2nt6Pu4NdkDA&utm_campaign=yelp_api_v3&utm_medium=api_v3_business_search&utm_source=4OloIt1kPZ2nt6Pu4NdkDA,Pe4cQ65ZJ9qS8JQZVkJz4g,6464767717,DIVISION ST,SHABUSHABU MAYUMON
Fornino,Pier 6 Brooklyn Bridge Park,Brooklyn,11201,NY,-74.00165153160219,40.692930215177675,301,4.0,$$,https://www.yelp.com/biz/fornino-brooklyn-5?adjust_creative=4OloIt1kPZ2nt6Pu4NdkDA&utm_campaign=yelp_api_v3&utm_medium=api_v3_business_search&utm_source=4OloIt1kPZ2nt6Pu4NdkDA,an8TuHRg0e3cgiAE705ZDA,7184221107,6 BROOKLYN BRIDGE PARK,FORNINO
Malatesta Trattoria,649 Washington St,New York,10014,NY,-74.00847,40.73285,1354,4.0,$$,https://www.yelp.com/biz/malatesta-trattoria-new-york?adjust_creative=4OloIt1kPZ2nt6Pu4NdkDA&utm_campaign=yelp_api_v3&utm_medium=api_v3_business_search&utm_source=4OloIt1kPZ2nt6Pu4NdkDA,IErfGS0DASSJfYU73m0Sqg,2127411207,WASHINGTON ST,MALATESTA TRATTORIA
Banter,643 Hudson St,New York,10014,NY,-74.005738,40.739135,155,4.5,$$,https://www.yelp.com/biz/banter-new-york-3?adjust_creative=4OloIt1kPZ2nt6Pu4NdkDA&utm_campaign=yelp_api_v3&utm_medium=api_v3_business_search&utm_source=4OloIt1kPZ2nt6Pu4NdkDA,x8slUOJxMX2EJ0YUU0rrSg,nan,HUDSON ST,BANTER
Selene,11 Hanover Sq,New York,10005,NY,-74.008846,40.705139,32,4.5,,https://www.yelp.com/biz/selene-new-york?adjust_creative=4OloIt1kPZ2nt6Pu4NdkDA&utm_campaign=yelp_api_v3&utm_medium=api_v3_business_search&utm_source=4OloIt1kPZ2nt6Pu4NdkDA,qteT5_nQApruxEzQ7IhrAQ,2124802670,HANOVER SQ,SELENE
Kimika,40 Kenmare St,New York,10012,NY,-73.995206,40.720572,351,4.0,$$$,https://www.yelp.com/biz/kimika-new-york?adjust_creative=4OloIt1kPZ2nt6Pu4NdkDA&utm_campaign=yelp_api_v3&utm_medium=api_v3_business_search&utm_source=4OloIt1kPZ2nt6Pu4NdkDA,mlm40NxsVJUPnh3LTayaaw,2122569280,KENMARE ST,KIMIKA
Montesacro Pinseria Brooklyn,432 Union Ave,Brooklyn,11211,NY,-73.95136,40.71338,257,4.5,$$,https://www.yelp.com/biz/montesacro-pinseria-brooklyn-brooklyn?adjust_creative=4OloIt1kPZ2nt6Pu4NdkDA&utm_campaign=yelp_api_v3&utm_medium=api_v3_business_search&utm_source=4OloIt1kPZ2nt6Pu4NdkDA,CFR-HzVHKWRMpMAR3LAhzg,3479161062,UNION AVE,MONTESACRO PINSERIA BROOKLYN
Hole In The Wall,37 W 24th St,New York,10010,NY,-73.99108071293105,40.74334201163294,309,4.0,$$,https://www.yelp.com/biz/hole-in-the-wall-new-york-13?adjust_creative=4OloIt1kPZ2nt6Pu4NdkDA&utm_campaign=yelp_api_v3&utm_medium=api_v3_business_search&utm_source=4OloIt1kPZ2nt6Pu4NdkDA,CDywb3LHVYZlQL2-woTiJA,6467264277,W 24TH ST,HOLE IN THE WALL
Otis,18 Harrison Pl,Brooklyn,11206,NY,-73.932598,40.706011,529,5.0,$$$,https://www.yelp.com/biz/otis-brooklyn-2?adjust_creative=4OloIt1kPZ2nt6Pu4NdkDA&utm_campaign=yelp_api_v3&utm_medium=api_v3_business_search&utm_source=4OloIt1kPZ2nt6Pu4NdkDA,RfxOtJ4SQmEeVX_XjFLWUQ,6468860601,HARRISON PL,OTIS
Hey Yuet,251 W 26th St,New York,10001,NY,-73.996441,40.747241,208,4.5,$$,https://www.yelp.com/biz/hey-yuet-new-york?adjust_creative=4OloIt1kPZ2nt6Pu4NdkDA&utm_campaign=yelp_api_v3&utm_medium=api_v3_business_search&utm_source=4OloIt1kPZ2nt6Pu4NdkDA,6YehBdKHcLDsvaewhcEjFQ,6469984196,W 26TH ST,HEY YUET
Red Hook Lobster Pound,284 Van Brunt St,Brooklyn,11231,NY,-74.0103686973453,40.6797687107191,1285,4.0,$$,https://www.yelp.com/biz/red-hook-lobster-pound-brooklyn?adjust_creative=4OloIt1kPZ2nt6Pu4NdkDA&utm_campaign=yelp_api_v3&utm_medium=api_v3_business_search&utm_source=4OloIt1kPZ2nt6Pu4NdkDA,nOjGNqPcu5jHRRElOndQqQ,7188587650,VAN BRUNT ST,RED HOOK LOBSTER POUND
Ammazzacaffè,702 Grand St,Brooklyn,11211,NY,-73.9446243,40.7113172,312,4.5,$$,https://www.yelp.com/biz/ammazzacaff%C3%A8-brooklyn?adjust_creative=4OloIt1kPZ2nt6Pu4NdkDA&utm_campaign=yelp_api_v3&utm_medium=api_v3_business_search&utm_source=4OloIt1kPZ2nt6Pu4NdkDA,eMSTTuOUlKEnSOr8lPp3Xg,9292502875,GRAND ST,AMMAZZACAFFÈ
Clark's Restaurant,80 Clark St,Brooklyn,11201,NY,-73.993250079407,40.69740294105,523,4.0,$$,https://www.yelp.com/biz/clarks-restaurant-brooklyn?adjust_creative=4OloIt1kPZ2nt6Pu4NdkDA&utm_campaign=yelp_api_v3&utm_medium=api_v3_business_search&utm_source=4OloIt1kPZ2nt6Pu4NdkDA,ybAfKElsgVcm60sS-39zyA,7188555484,CLARK ST,CLARK'S RESTAURANT
Monkey Bar,60 E 54th St,New York,10022,NY,-73.97313,40.75998,105,4.0,,https://www.yelp.com/biz/monkey-bar-new-york-4?adjust_creative=4OloIt1kPZ2nt6Pu4NdkDA&utm_campaign=yelp_api_v3&utm_medium=api_v3_business_search&utm_source=4OloIt1kPZ2nt6Pu4NdkDA,gZz9A8k8ORC_xl0aHxtY4w,2124040365,E 54TH ST,MONKEY BAR
Toloache 50,251 West 50th St,New York,10012,NY,-73.9856178382696,40.762227,2249,4.0,$$$,https://www.yelp.com/biz/toloache-50-new-york?adjust_creative=4OloIt1kPZ2nt6Pu4NdkDA&utm_campaign=yelp_api_v3&utm_medium=api_v3_business_search&utm_source=4OloIt1kPZ2nt6Pu4NdkDA,Wx6lMnEh7dCmX-9PQF1Ifw,2125811818,WEST 50TH ST,TOLOACHE 50
Lulu & Po,274 Hall St,Brooklyn,11205,NY,-73.96538,40.69004,52,4.0,,https://www.yelp.com/biz/lulu-and-po-brooklyn-6?adjust_creative=4OloIt1kPZ2nt6Pu4NdkDA&utm_campaign=yelp_api_v3&utm_medium=api_v3_business_search&utm_source=4OloIt1kPZ2nt6Pu4NdkDA,33aXjbj8dFwwyoeZonhN2Q,9174465569,HALL ST,LULU & PO
French Louie,320 Atlantic Ave,Brooklyn,11201,NY,-73.988257,40.6879459,467,4.0,$$,https://www.yelp.com/biz/french-louie-brooklyn?adjust_creative=4OloIt1kPZ2nt6Pu4NdkDA&utm_campaign=yelp_api_v3&utm_medium=api_v3_business_search&utm_source=4OloIt1kPZ2nt6Pu4NdkDA,9pI_G9xGiTY4YCcfe9eoPA,7189351200,ATLANTIC AVE,FRENCH LOUIE
Rosemary’s,350 1st Ave,New York,10010,NY,-73.979074,40.735097,249,4.0,$$$,https://www.yelp.com/biz/rosemary-s-new-york?adjust_creative=4OloIt1kPZ2nt6Pu4NdkDA&utm_campaign=yelp_api_v3&utm_medium=api_v3_business_search&utm_source=4OloIt1kPZ2nt6Pu4NdkDA,FXYsBqMu2q1dhJYQg_FfAA,6468685335,1ST AVE,ROSEMARY’S
Alta,64 W 10th St,New York,10011,NY,-73.9983369619683,40.7345163811398,2017,4.0,$$$,https://www.yelp.com/biz/alta-new-york?adjust_creative=4OloIt1kPZ2nt6Pu4NdkDA&utm_campaign=yelp_api_v3&utm_medium=api_v3_business_search&utm_source=4OloIt1kPZ2nt6Pu4NdkDA,XEugUtbw4rRmGr9S1XA-aQ,2125057777,W 10TH ST,ALTA
abcV at Tin Building,96 South St,New York,10038,NY,-74.00231843132296,40.7062795449079,33,4.0,,https://www.yelp.com/biz/abcv-at-tin-building-new-york-2?adjust_creative=4OloIt1kPZ2nt6Pu4NdkDA&utm_campaign=yelp_api_v3&utm_medium=api_v3_business_search&utm_source=4OloIt1kPZ2nt6Pu4NdkDA,hMd4Z5j1I25ffLm81MeluQ,6468686000,SOUTH ST,ABCV AT TIN BUILDING
Hanoi House,119 Saint Marks Pl,New York,10009,NY,-73.983505,40.727066,729,4.5,$$,https://www.yelp.com/biz/hanoi-house-new-york?adjust_creative=4OloIt1kPZ2nt6Pu4NdkDA&utm_campaign=yelp_api_v3&utm_medium=api_v3_business_search&utm_source=4OloIt1kPZ2nt6Pu4NdkDA,bZQryeTD6hIsT6lSUxzSSw,2129955010,SAINT MARKS PL,HANOI HOUSE
Moono,29 E 32nd St,New York,10016,NY,-73.983289,40.746463,46,4.5,,https://www.yelp.com/biz/moono-new-york?adjust_creative=4OloIt1kPZ2nt6Pu4NdkDA&utm_campaign=yelp_api_v3&utm_medium=api_v3_business_search&utm_source=4OloIt1kPZ2nt6Pu4NdkDA,d7pLL2k__WFcqtQ3cqfpHw,6464298309,E 32ND ST,MOONO
Fishmarket II,171 Avenue A,New York,10009,NY,-73.98204,40.72835,34,4.5,,https://www.yelp.com/biz/fishmarket-ii-new-york?adjust_creative=4OloIt1kPZ2nt6Pu4NdkDA&utm_campaign=yelp_api_v3&utm_medium=api_v3_business_search&utm_source=4OloIt1kPZ2nt6Pu4NdkDA,wcrra8bgoqXVcZpMM5fE1g,6469227004,AVENUE A,FISHMARKET II
Chi Restaurant & Bar,492 9th Ave,New York,10018,NY,-73.99439,40.75547,85,4.5,,https://www.yelp.com/biz/chi-restaurant-and-bar-new-york?adjust_creative=4OloIt1kPZ2nt6Pu4NdkDA&utm_campaign=yelp_api_v3&utm_medium=api_v3_business_search&utm_source=4OloIt1kPZ2nt6Pu4NdkDA,83zDAk03lFXkgImgkLhT9w,2129181470,9TH AVE,CHI RESTAURANT & BAR
La Pecora Bianca,817 Washington St,New York,10014,NY,-74.00775,40.73959,58,4.5,,https://www.yelp.com/biz/la-pecora-bianca-new-york-8?adjust_creative=4OloIt1kPZ2nt6Pu4NdkDA&utm_campaign=yelp_api_v3&utm_medium=api_v3_business_search&utm_source=4OloIt1kPZ2nt6Pu4NdkDA,B2X53VuOuLyXe0OsGY-ZzA,2125093030,WASHINGTON ST,LA PECORA BIANCA
Kjun,154 E 39th St,New York,10016,NY,-73.97633,40.74897,109,4.5,,https://www.yelp.com/biz/kjun-new-york?adjust_creative=4OloIt1kPZ2nt6Pu4NdkDA&utm_campaign=yelp_api_v3&utm_medium=api_v3_business_search&utm_source=4OloIt1kPZ2nt6Pu4NdkDA,xQag1K9NezcXdXXn2AZcqA,3476758026,E 39TH ST,KJUN
Bar Verde,65 2nd Ave,New York,10003,NY,-73.9897361397743,40.7260849061034,439,4.5,$$,https://www.yelp.com/biz/bar-verde-new-york?adjust_creative=4OloIt1kPZ2nt6Pu4NdkDA&utm_campaign=yelp_api_v3&utm_medium=api_v3_business_search&utm_source=4OloIt1kPZ2nt6Pu4NdkDA,PqqnNrUtU7XTKQvUM4cyqQ,2127776965,2ND AVE,BAR VERDE
Virginia's,200 E 3rd St,New York,10009,NY,-73.98332,40.722704,20,5.0,,https://www.yelp.com/biz/virginias-new-york-2?adjust_creative=4OloIt1kPZ2nt6Pu4NdkDA&utm_campaign=yelp_api_v3&utm_medium=api_v3_business_search&utm_source=4OloIt1kPZ2nt6Pu4NdkDA,jlbtOUU-dmPwLwSYXal2oQ,6469520032,E 3RD ST,VIRGINIA'S
Verge,159 Franklin St,Brooklyn,11222,NY,-73.95803552883534,40.73188595247275,28,5.0,,https://www.yelp.com/biz/verge-brooklyn?adjust_creative=4OloIt1kPZ2nt6Pu4NdkDA&utm_campaign=yelp_api_v3&utm_medium=api_v3_business_search&utm_source=4OloIt1kPZ2nt6Pu4NdkDA,CB-7kZ9u5fzhzYwPAIcelQ,3477213300,FRANKLIN ST,VERGE
Izakaya Toribar,164 E 56th St,New York,10022,NY,-73.9685558,40.759641,172,4.0,$$,https://www.yelp.com/biz/izakaya-toribar-new-york?adjust_creative=4OloIt1kPZ2nt6Pu4NdkDA&utm_campaign=yelp_api_v3&utm_medium=api_v3_business_search&utm_source=4OloIt1kPZ2nt6Pu4NdkDA,wpT1QU7PSQgQQ1DkzI00JA,6467670029,E 56TH ST,IZAKAYA TORIBAR
Luana’s Tavern,449 Court St,Brooklyn,11231,NY,-73.9979312,40.67765975562432,15,4.5,,https://www.yelp.com/biz/luana-s-tavern-brooklyn?adjust_creative=4OloIt1kPZ2nt6Pu4NdkDA&utm_campaign=yelp_api_v3&utm_medium=api_v3_business_search&utm_source=4OloIt1kPZ2nt6Pu4NdkDA,ZWDE2LJ3EK0VrAS-1m0XlQ,9292980321,COURT ST,LUANA’S TAVERN
Zaytinya - New York,1185 Broadway,New York,10001,NY,-73.9889085,40.74549437933232,269,4.0,,https://www.yelp.com/biz/zaytinya-new-york-new-york-5?adjust_creative=4OloIt1kPZ2nt6Pu4NdkDA&utm_campaign=yelp_api_v3&utm_medium=api_v3_business_search&utm_source=4OloIt1kPZ2nt6Pu4NdkDA,s5N-w7EPY3DA68id5qycyA,2128049070,BROADWAY,ZAYTINYA - NEW YORK
Coletta,365 3rd Ave,New York,10016,NY,-73.98139,40.74094,224,4.5,$$$,https://www.yelp.com/biz/coletta-new-york-2?adjust_creative=4OloIt1kPZ2nt6Pu4NdkDA&utm_campaign=yelp_api_v3&utm_medium=api_v3_business_search&utm_source=4OloIt1kPZ2nt6Pu4NdkDA,JwCnSW-RQ7_DxvbzWNO1hA,6468612889,3RD AVE,COLETTA
Khaosan Thai Nyc,128 Montague St,Brooklyn,11201,NY,-73.994241,40.694537,40,4.5,,https://www.yelp.com/biz/khaosan-thai-nyc-brooklyn?adjust_creative=4OloIt1kPZ2nt6Pu4NdkDA&utm_campaign=yelp_api_v3&utm_medium=api_v3_business_search&utm_source=4OloIt1kPZ2nt6Pu4NdkDA,JRQBzjWWijnJAb0SLqHaxQ,3472940179,MONTAGUE ST,KHAOSAN THAI NYC
Pilot,Pier 6 Brooklyn Bridge Park,Brooklyn,11201,NY,-74.00308873784124,40.693856933541646,312,4.0,$$$,https://www.yelp.com/biz/pilot-brooklyn?adjust_creative=4OloIt1kPZ2nt6Pu4NdkDA&utm_campaign=yelp_api_v3&utm_medium=api_v3_business_search&utm_source=4OloIt1kPZ2nt6Pu4NdkDA,zyxI5ko5Dpkqi9q5oSGa9w,nan,6 BROOKLYN BRIDGE PARK,PILOT
Da Long Yi Hot Pot,159 Canal St,New York,10013,NY,-73.996583,40.716557,586,4.5,$$$,https://www.yelp.com/biz/da-long-yi-hot-pot-new-york-4?adjust_creative=4OloIt1kPZ2nt6Pu4NdkDA&utm_campaign=yelp_api_v3&utm_medium=api_v3_business_search&utm_source=4OloIt1kPZ2nt6Pu4NdkDA,vLsTPg42rkgN5rUpNfg1OA,9178895539,CANAL ST,DA LONG YI HOT POT
Hoek Pizza,117 Ferris St,Brooklyn,11231,NY,-74.0169529,40.6779064,85,4.0,,https://www.yelp.com/biz/hoek-pizza-brooklyn-2?adjust_creative=4OloIt1kPZ2nt6Pu4NdkDA&utm_campaign=yelp_api_v3&utm_medium=api_v3_business_search&utm_source=4OloIt1kPZ2nt6Pu4NdkDA,cE7xZRpa8HLtGNtVhomysQ,7188558111,FERRIS ST,HOEK PIZZA
Tonchin,109 N 3rd St,Brooklyn,11249,NY,-73.9616957,40.71676616063315,71,4.5,,https://www.yelp.com/biz/tonchin-brooklyn?adjust_creative=4OloIt1kPZ2nt6Pu4NdkDA&utm_campaign=yelp_api_v3&utm_medium=api_v3_business_search&utm_source=4OloIt1kPZ2nt6Pu4NdkDA,lT-yNq6BW2vonJ9Ik-T5vg,3474575528,N 3RD ST,TONCHIN
Citizens Of Soho,201 Lafayette St,New York,10012,NY,-73.99766916309609,40.72134572319133,141,4.0,$$,https://www.yelp.com/biz/citizens-of-soho-new-york?adjust_creative=4OloIt1kPZ2nt6Pu4NdkDA&utm_campaign=yelp_api_v3&utm_medium=api_v3_business_search&utm_source=4OloIt1kPZ2nt6Pu4NdkDA,JYbrQqYd-8iGBWIAAHKBRA,3475351245,LAFAYETTE ST,CITIZENS OF SOHO
Cafe Chelsea,218 W 23rd St,New York,10011,NY,-73.996698,40.744338,13,4.0,,https://www.yelp.com/biz/cafe-chelsea-new-york-5?adjust_creative=4OloIt1kPZ2nt6Pu4NdkDA&utm_campaign=yelp_api_v3&utm_medium=api_v3_business_search&utm_source=4OloIt1kPZ2nt6Pu4NdkDA,bAmZzoqtc2QftmvQ2iE4BA,2125181813,W 23RD ST,CAFE CHELSEA
The Flatiron Room - Murray Hill,9 E 37th St,New York,10016,NY,-73.98221,40.750165,521,4.5,$$$,https://www.yelp.com/biz/the-flatiron-room-murray-hill-new-york?adjust_creative=4OloIt1kPZ2nt6Pu4NdkDA&utm_campaign=yelp_api_v3&utm_medium=api_v3_business_search&utm_source=4OloIt1kPZ2nt6Pu4NdkDA,Xk3BVvlX-KXh6kJhbClMKw,2127253866,E 37TH ST,THE FLATIRON ROOM - MURRAY HILL
Los Tacos No.1,340 Lafayette St,New York,10012,NY,-73.9946634,40.726157,144,4.5,$,https://www.yelp.com/biz/los-tacos-no-1-new-york-10?adjust_creative=4OloIt1kPZ2nt6Pu4NdkDA&utm_campaign=yelp_api_v3&utm_medium=api_v3_business_search&utm_source=4OloIt1kPZ2nt6Pu4NdkDA,XPbcjRWxumT4ZQr-7uqOAw,nan,LAFAYETTE ST,LOS TACOS NO.1
Rucola,190 Dean St,Brooklyn,11217,NY,-73.98587,40.68562,561,4.0,$$,https://www.yelp.com/biz/rucola-brooklyn?adjust_creative=4OloIt1kPZ2nt6Pu4NdkDA&utm_campaign=yelp_api_v3&utm_medium=api_v3_business_search&utm_source=4OloIt1kPZ2nt6Pu4NdkDA,Ry9w-jFALWYhazi6jjyIKw,7185763209,DEAN ST,RUCOLA
Medusa The Greek,133 5th Ave,Brooklyn,11217,NY,-73.97885,40.67857,219,4.5,,https://www.yelp.com/biz/medusa-the-greek-brooklyn?adjust_creative=4OloIt1kPZ2nt6Pu4NdkDA&utm_campaign=yelp_api_v3&utm_medium=api_v3_business_search&utm_source=4OloIt1kPZ2nt6Pu4NdkDA,h77VtGL7BCXvAALx-ZFbVA,3475990749,5TH AVE,MEDUSA THE GREEK
Eataly NYC Flatiron,200 5th Ave,New York,10010,NY,-73.989922,40.742101,6101,4.0,$$,https://www.yelp.com/biz/eataly-nyc-flatiron-new-york-3?adjust_creative=4OloIt1kPZ2nt6Pu4NdkDA&utm_campaign=yelp_api_v3&utm_medium=api_v3_business_search&utm_source=4OloIt1kPZ2nt6Pu4NdkDA,a0IET3_yCFcO36OqGSsisg,2122292560,5TH AVE,EATALY NYC FLATIRON
The Golden Swan,314 W 11th St,New York,10014,NY,-74.00667656503965,40.7356339604426,9,4.5,,https://www.yelp.com/biz/the-golden-swan-new-york?adjust_creative=4OloIt1kPZ2nt6Pu4NdkDA&utm_campaign=yelp_api_v3&utm_medium=api_v3_business_search&utm_source=4OloIt1kPZ2nt6Pu4NdkDA,zkqlyrVUYZaYpgiezUNKsw,2125972681,W 11TH ST,THE GOLDEN SWAN
Ci Siamo,440 West 33rd St,New York,10001,NY,-73.9982864846782,40.75240549384363,351,4.5,$$$,https://www.yelp.com/biz/ci-siamo-new-york-5?adjust_creative=4OloIt1kPZ2nt6Pu4NdkDA&utm_campaign=yelp_api_v3&utm_medium=api_v3_business_search&utm_source=4OloIt1kPZ2nt6Pu4NdkDA,LkV96_buOU_n0br4SBO57w,2122196559,WEST 33RD ST,CI SIAMO
Sky 55 Bar & Grill,55 Water St,New York,10041,NY,-74.008687,40.703234,28,4.0,$$,https://www.yelp.com/biz/sky-55-bar-and-grill-new-york?adjust_creative=4OloIt1kPZ2nt6Pu4NdkDA&utm_campaign=yelp_api_v3&utm_medium=api_v3_business_search&utm_source=4OloIt1kPZ2nt6Pu4NdkDA,9Ke2V1SJVOPyr4z3Bj4_IQ,6465906556,WATER ST,SKY 55 BAR & GRILL
Nowon Bushwick,436 Jefferson St,Brooklyn,11237,NY,-73.922843,40.707387,29,4.5,,https://www.yelp.com/biz/nowon-bushwick-brooklyn?adjust_creative=4OloIt1kPZ2nt6Pu4NdkDA&utm_campaign=yelp_api_v3&utm_medium=api_v3_business_search&utm_source=4OloIt1kPZ2nt6Pu4NdkDA,4qiX3E2WEsj7qz4fmrR-uQ,7189719636,JEFFERSON ST,NOWON BUSHWICK
Namkeen,338 Bedford Ave,New York,11249,NY,-73.96248,40.71285,114,4.0,$$,https://www.yelp.com/biz/namkeen-new-york?adjust_creative=4OloIt1kPZ2nt6Pu4NdkDA&utm_campaign=yelp_api_v3&utm_medium=api_v3_business_search&utm_source=4OloIt1kPZ2nt6Pu4NdkDA,fiPKqhW7BGq3aURuLPQn9Q,3476583383,BEDFORD AVE,NAMKEEN
Grindhaus,275 Van Brunt St,Brooklyn,11231,NY,-74.01055,40.67919,117,4.5,$$,https://www.yelp.com/biz/grindhaus-brooklyn-2?adjust_creative=4OloIt1kPZ2nt6Pu4NdkDA&utm_campaign=yelp_api_v3&utm_medium=api_v3_business_search&utm_source=4OloIt1kPZ2nt6Pu4NdkDA,nKjEA5nW5zm2MjD2ukdTtQ,3475973063,VAN BRUNT ST,GRINDHAUS
Big Tiny,244 Smith St,Brooklyn,11231,NY,-73.992855,40.6834507,81,4.5,$$,https://www.yelp.com/biz/big-tiny-brooklyn-4?adjust_creative=4OloIt1kPZ2nt6Pu4NdkDA&utm_campaign=yelp_api_v3&utm_medium=api_v3_business_search&utm_source=4OloIt1kPZ2nt6Pu4NdkDA,OkiPb6gNNRmcbB4zIIMx0g,nan,SMITH ST,BIG TINY
Nhà Mình,9-15 Wyckoff Ave,Ridgewood,11385,NY,-73.9062773,40.6970014,45,4.0,,https://www.yelp.com/biz/nh%C3%A0-m%C3%ACnh-ridgewood?adjust_creative=4OloIt1kPZ2nt6Pu4NdkDA&utm_campaign=yelp_api_v3&utm_medium=api_v3_business_search&utm_source=4OloIt1kPZ2nt6Pu4NdkDA,HXdrokG5I_x0zRIj6Skb8A,7183877848,WYCKOFF AVE,NHÀ MÌNH
Lucali,575 Henry St,Brooklyn,11231,NY,-74.0003327,40.681840746711224,1984,4.0,$$,https://www.yelp.com/biz/lucali-brooklyn-3?adjust_creative=4OloIt1kPZ2nt6Pu4NdkDA&utm_campaign=yelp_api_v3&utm_medium=api_v3_business_search&utm_source=4OloIt1kPZ2nt6Pu4NdkDA,Q9F2ocrmYuGt1yn3M7MOBw,7188584086,HENRY ST,LUCALI
Lombardi's Pizza,32 Spring St,New York,10012,NY,-73.9955956044561,40.7215934960083,6606,4.0,$$,https://www.yelp.com/biz/lombardis-pizza-new-york-4?adjust_creative=4OloIt1kPZ2nt6Pu4NdkDA&utm_campaign=yelp_api_v3&utm_medium=api_v3_business_search&utm_source=4OloIt1kPZ2nt6Pu4NdkDA,WIhm0W9197f_rRtDziq5qQ,2129417994,SPRING ST,LOMBARDI'S PIZZA
Carlota,14A Orchard St,New York,10002,NY,-73.991693,40.715038,2,5.0,,https://www.yelp.com/biz/carlota-new-york-2?adjust_creative=4OloIt1kPZ2nt6Pu4NdkDA&utm_campaign=yelp_api_v3&utm_medium=api_v3_business_search&utm_source=4OloIt1kPZ2nt6Pu4NdkDA,CtvP-NlWliuvUEmH1d22og,9174880943,ORCHARD ST,CARLOTA
Los Tacos No.1,75 9th Ave,New York,10011,NY,-74.0059581,40.7422546402357,3807,4.5,$$,https://www.yelp.com/biz/los-tacos-no-1-new-york?adjust_creative=4OloIt1kPZ2nt6Pu4NdkDA&utm_campaign=yelp_api_v3&utm_medium=api_v3_business_search&utm_source=4OloIt1kPZ2nt6Pu4NdkDA,jnEv25Y2DosTq2sNnvmC9g,nan,9TH AVE,LOS TACOS NO.1
Piccola Cucina Uptown,106 E 60th St,New York,10022,NY,-73.969046,40.763174,363,4.5,$$$,https://www.yelp.com/biz/piccola-cucina-uptown-new-york?adjust_creative=4OloIt1kPZ2nt6Pu4NdkDA&utm_campaign=yelp_api_v3&utm_medium=api_v3_business_search&utm_source=4OloIt1kPZ2nt6Pu4NdkDA,VmdyRRMtUXOWV7F7w0ImwQ,6467073997,E 60TH ST,PICCOLA CUCINA UPTOWN
Bar Mario,365 Van Brunt St,Brooklyn,11231,NY,-74.01367008804954,40.676867170482815,23,4.5,,https://www.yelp.com/biz/bar-mario-brooklyn?adjust_creative=4OloIt1kPZ2nt6Pu4NdkDA&utm_campaign=yelp_api_v3&utm_medium=api_v3_business_search&utm_source=4OloIt1kPZ2nt6Pu4NdkDA,llaJFX_qOWTrlcXBZR0RyA,nan,VAN BRUNT ST,BAR MARIO
Magdalene,524 Lorimer St,Brooklyn,11211,NY,-73.94899,40.71252,67,4.5,$$,https://www.yelp.com/biz/magdalene-brooklyn?adjust_creative=4OloIt1kPZ2nt6Pu4NdkDA&utm_campaign=yelp_api_v3&utm_medium=api_v3_business_search&utm_source=4OloIt1kPZ2nt6Pu4NdkDA,Ucg3flg-2tJAahEePIoigQ,3475088280,LORIMER ST,MAGDALENE
Yardbird,Smith Street & Pacific Street,Brooklyn,11201,NY,-73.98961,40.68798,16,4.0,$$,https://www.yelp.com/biz/yardbird-brooklyn?adjust_creative=4OloIt1kPZ2nt6Pu4NdkDA&utm_campaign=yelp_api_v3&utm_medium=api_v3_business_search&utm_source=4OloIt1kPZ2nt6Pu4NdkDA,JrVz85x20SmqGiCjtzFBjg,nan,STREET & PACIFIC STREET,YARDBIRD
Dashi Okume,50 Norman Ave,Brooklyn,11222,NY,-73.95365,40.72466,22,4.5,,https://www.yelp.com/biz/dashi-okume-brooklyn-2?adjust_creative=4OloIt1kPZ2nt6Pu4NdkDA&utm_campaign=yelp_api_v3&utm_medium=api_v3_business_search&utm_source=4OloIt1kPZ2nt6Pu4NdkDA,GG72AwlaBM90YdLvRJliFg,6464342912,NORMAN AVE,DASHI OKUME
Chote Miya,55 Water St,Brooklyn,11201,NY,-73.9916073158383,40.7034194804375,49,4.0,,https://www.yelp.com/biz/chote-miya-brooklyn?adjust_creative=4OloIt1kPZ2nt6Pu4NdkDA&utm_campaign=yelp_api_v3&utm_medium=api_v3_business_search&utm_source=4OloIt1kPZ2nt6Pu4NdkDA,ZwER8TyQH70ACI-nIG682g,nan,WATER ST,CHOTE MIYA
Gitano Island,125 Carder Rd,New York,10004,NY,-74.01397807055223,40.69153851083249,141,3.5,,https://www.yelp.com/biz/gitano-island-new-york?adjust_creative=4OloIt1kPZ2nt6Pu4NdkDA&utm_campaign=yelp_api_v3&utm_medium=api_v3_business_search&utm_source=4OloIt1kPZ2nt6Pu4NdkDA,uSS5cbcb_KLoXE5yzwjI6w,nan,CARDER RD,GITANO ISLAND
JUA,36 E 22nd St,New York,10010,NY,-73.987832,40.739694,330,4.5,$$$$,https://www.yelp.com/biz/jua-new-york?adjust_creative=4OloIt1kPZ2nt6Pu4NdkDA&utm_campaign=yelp_api_v3&utm_medium=api_v3_business_search&utm_source=4OloIt1kPZ2nt6Pu4NdkDA,fX_E2J6LqK6u77zNa8xyJQ,nan,E 22ND ST,JUA
E Noodle 粥麵館 - Chinatown,5 Catherine St,New York,10038,NY,-73.99728057321444,40.71386837257795,152,4.0,$,https://www.yelp.com/biz/e-noodle-%E7%B2%A5%E9%BA%B5%E9%A4%A8-chinatown-new-york?adjust_creative=4OloIt1kPZ2nt6Pu4NdkDA&utm_campaign=yelp_api_v3&utm_medium=api_v3_business_search&utm_source=4OloIt1kPZ2nt6Pu4NdkDA,5tWpAFpF618KJxBhHJzF7g,2122268919,CATHERINE ST,E NOODLE 粥麵館 - CHINATOWN
Pineapple Club,509 E 6th St,New York,10009,NY,-73.9832095,40.72535710437942,274,4.0,$$$,https://www.yelp.com/biz/pineapple-club-new-york?adjust_creative=4OloIt1kPZ2nt6Pu4NdkDA&utm_campaign=yelp_api_v3&utm_medium=api_v3_business_search&utm_source=4OloIt1kPZ2nt6Pu4NdkDA,wTQYOTh9_JPI2I8s6Xc-Cw,2126978600,E 6TH ST,PINEAPPLE CLUB
JoyPot,23-10 Jackson Ave,Long Island City,11101,NY,-73.945199,40.745715,11,4.5,,https://www.yelp.com/biz/joypot-long-island-city?adjust_creative=4OloIt1kPZ2nt6Pu4NdkDA&utm_campaign=yelp_api_v3&utm_medium=api_v3_business_search&utm_source=4OloIt1kPZ2nt6Pu4NdkDA,KvTQp5VJv447vwjMxSmL2w,5858513333,JACKSON AVE,JOYPOT
KRU,190 N 14th St,Brooklyn,11249,NY,-73.9557975,40.72281573696329,49,4.0,,https://www.yelp.com/biz/kru-brooklyn-2?adjust_creative=4OloIt1kPZ2nt6Pu4NdkDA&utm_campaign=yelp_api_v3&utm_medium=api_v3_business_search&utm_source=4OloIt1kPZ2nt6Pu4NdkDA,xJuKTbInUnTsLINLLH8ehw,nan,N 14TH ST,KRU
Trattoria Trecolori,254 West 47th St,New York,10036,NY,-73.986767,40.759876,2666,4.0,$$,https://www.yelp.com/biz/trattoria-trecolori-new-york?adjust_creative=4OloIt1kPZ2nt6Pu4NdkDA&utm_campaign=yelp_api_v3&utm_medium=api_v3_business_search&utm_source=4OloIt1kPZ2nt6Pu4NdkDA,DoSU8IPq-Py_YV3kYmXPfQ,2129974540,WEST 47TH ST,TRATTORIA TRECOLORI
